[
    {
        "name": "北海道",
        "stores": [
            {
                "store_name": "タイトーステーション札幌狸小路２丁目店",
                "store_address": "北海道札幌市中央区南３条西２丁目−１４",
                "store_map_url": "https://maps.google.com/maps?q=タイトーステーション札幌狸小路２丁目店@43.05733562965091,141.35545295092618",
                "lat": 43.05733562965091,
                "lng": 141.35545295092618,
                "store_type": null
            },
            {
                "store_name": "ラウンドワン札幌すすきの店",
                "store_address": "北海道札幌市中央区南五条西3-6-1",
                "store_map_url": "https://maps.google.com/maps?q=ラウンドワン札幌すすきの店@43.0545356,141.354524",
                "lat": 43.0545356,
                "lng": 141.354524,
                "store_type": null
            },
            {
                "store_name": "東急百貨店さっぽろアミューズパーク",
                "store_address": "北海道札幌市中央区北４条西２−１東急百貨店さっぽろ店９階",
                "store_map_url": "https://maps.google.com/maps?q=東急百貨店さっぽろアミューズパーク@43.06755206891484,141.35270916508182",
                "lat": 43.06755206891484,
                "lng": 141.35270916508182,
                "store_type": null
            },
            {
                "store_name": "キャッツアイ新川店",
                "store_address": "北海道札幌市北区新川二条７丁目１ー７",
                "store_map_url": "https://maps.google.com/maps?q=キャッツアイ新川店@43.10073661576035,141.31029544418027",
                "lat": 43.10073661576035,
                "lng": 141.31029544418027,
                "store_type": null
            },
            {
                "store_name": "キャッツアイ篠路店",
                "store_address": "北海道札幌市北区篠路１条４丁目６ー３０",
                "store_map_url": "https://maps.google.com/maps?q=キャッツアイ篠路店@43.14066394288107,141.35721091656762",
                "lat": 43.14066394288107,
                "lng": 141.35721091656762,
                "store_type": null
            },
            {
                "store_name": "ＧｉＧＯ札幌駅西口",
                "store_address": "北海道札幌市北区北６条西６丁目１‐１",
                "store_map_url": "https://maps.google.com/maps?q=ＧｉＧＯ札幌駅西口@43.067531,141.3462795",
                "lat": 43.067531,
                "lng": 141.3462795,
                "store_type": null
            },
            {
                "store_name": "キャッツアイ栄通店",
                "store_address": "北海道札幌市白石区栄通１９丁目１１−４３",
                "store_map_url": "https://maps.google.com/maps?q=キャッツアイ栄通店@43.0253475533429,141.43663107853888",
                "lat": 43.0253475533429,
                "lng": 141.43663107853888,
                "store_type": null
            },
            {
                "store_name": "ラウンドワン札幌白石本通店",
                "store_address": "北海道札幌市白石区本通１６丁目北１−５０",
                "store_map_url": "https://maps.google.com/maps?q=ラウンドワン札幌白石本通店@43.0367922,141.43287808836055",
                "lat": 43.0367922,
                "lng": 141.43287808836055,
                "store_type": null
            },
            {
                "store_name": "キャッツアイ新札幌店",
                "store_address": "北海道札幌市厚別区厚別東五条１ー２−１０",
                "store_map_url": "https://maps.google.com/maps?q=キャッツアイ新札幌店@43.045261229019154,141.47579700000006",
                "lat": 43.045261229019154,
                "lng": 141.47579700000006,
                "store_type": null
            },
            {
                "store_name": "ゲームランド新さっぽろ",
                "store_address": "北海道札幌市厚別区中央２条５丁目７−３ カテプリさっぽろ３階",
                "store_map_url": "https://maps.google.com/maps?q=ゲームランド新さっぽろ@43.0374407,141.4724783",
                "lat": 43.0374407,
                "lng": 141.4724783,
                "store_type": null
            },
            {
                "store_name": "トムソーヤのなかまたち藻岩店",
                "store_address": "北海道札幌市南区川治二条２−１−１イオン札幌藻岩店",
                "store_map_url": "https://maps.google.com/maps?q=トムソーヤのなかまたち藻岩店@42.999313,141.336483",
                "lat": 42.999313,
                "lng": 141.336483,
                "store_type": null
            },
            {
                "store_name": "キャッツアイ清田店",
                "store_address": "北海道札幌市清田区清田１条１−２０−１",
                "store_map_url": "https://maps.google.com/maps?q=キャッツアイ清田店@43.00298407634302,141.43639692394254",
                "lat": 43.00298407634302,
                "lng": 141.43639692394254,
                "store_type": null
            },
            {
                "store_name": "キャッツアイミュンヘン大橋店",
                "store_address": "北海道札幌市豊平区平岸１条２３丁目８０１−１",
                "store_map_url": "https://maps.google.com/maps?q=キャッツアイミュンヘン大橋店@43.013979,141.355013",
                "lat": 43.013979,
                "lng": 141.355013,
                "store_type": null
            },
            {
                "store_name": "アドアーズ札幌北４２条",
                "store_address": "北海道札幌市東区北４２条東７−１−１　嶋ビル２階",
                "store_map_url": "https://maps.google.com/maps?q=アドアーズ札幌北４２条@43.111964293580535,141.3551602123032",
                "lat": 43.111964293580535,
                "lng": 141.3551602123032,
                "store_type": null
            },
            {
                "store_name": "キャッツアイ東苗穂店",
                "store_address": "北海道札幌市東区東苗穂６条２丁目１−２５",
                "store_map_url": "https://maps.google.com/maps?q=キャッツアイ東苗穂店@43.09234016092269,141.40699743068853",
                "lat": 43.09234016092269,
                "lng": 141.40699743068853,
                "store_type": null
            },
            {
                "store_name": "ソユーゲームフィールド苗穂店",
                "store_address": "北海道札幌市東区東苗穂2条3-1-1　イオンモール札幌苗穂２Ｆ",
                "store_map_url": "https://maps.google.com/maps?q=ソユーゲームフィールド苗穂店@43.07983641819684,141.40381226137697",
                "lat": 43.07983641819684,
                "lng": 141.40381226137697,
                "store_type": null
            },
            {
                "store_name": "ラウンドワン札幌北２１条店",
                "store_address": "北海道札幌市東区北二十一条東１−１−２１",
                "store_map_url": "https://maps.google.com/maps?q=ラウンドワン札幌北２１条店@43.086762669369904,141.34970463372952",
                "lat": 43.086762669369904,
                "lng": 141.34970463372952,
                "store_type": null
            },
            {
                "store_name": "ＧｉＧＯ西友手稲",
                "store_address": "北海道札幌市手稲区前田１条１１丁目西友手稲店３階",
                "store_map_url": "https://maps.google.com/maps?q=ＧｉＧＯ西友手稲@43.120533311687296,141.24542048346711",
                "lat": 43.120533311687296,
                "lng": 141.24542048346711,
                "store_type": null
            },
            {
                "store_name": "キャッツアイ宮の沢店",
                "store_address": "北海道札幌市手稲区西宮の沢５条２丁目１１−１５",
                "store_map_url": "https://maps.google.com/maps?q=キャッツアイ宮の沢店@43.0963919,141.2576566",
                "lat": 43.0963919,
                "lng": 141.2576566,
                "store_type": null
            },
            {
                "store_name": "ソユーゲームフィールド発寒",
                "store_address": "北海道札幌市西区発寒8条12丁目1　イオン札幌発寒SC3F",
                "store_map_url": "https://maps.google.com/maps?q=ソユーゲームフィールド発寒@43.09642223076628,141.2764948600494",
                "lat": 43.09642223076628,
                "lng": 141.2764948600494,
                "store_type": null
            },
            {
                "store_name": "ＧｉＧＯドリームタウン白樺",
                "store_address": "北海道帯広市白樺１６条西２丁目ドリームタウン白樺１階",
                "store_map_url": "https://maps.google.com/maps?q=ＧｉＧＯドリームタウン白樺@42.919418067661404,143.1743324576721",
                "lat": 42.919418067661404,
                "lng": 143.1743324576721,
                "store_type": null
            },
            {
                "store_name": "ＧｉＧＯ帯広稲田",
                "store_address": "北海道帯広市稲田町南八線西１２−１スズランボウル１・２階",
                "store_map_url": "https://maps.google.com/maps?q=ＧｉＧＯ帯広稲田@42.89020559062066,143.196460217791",
                "lat": 42.89020559062066,
                "lng": 143.196460217791,
                "store_type": null
            },
            {
                "store_name": "アミューズメントスペース遊ランド春光店",
                "store_address": "北海道旭川市春光1条7丁目2-25",
                "store_map_url": "https://maps.google.com/maps?q=アミューズメントスペース遊ランド春光店@43.7981968,142.3740362",
                "lat": 43.7981968,
                "lng": 142.3740362,
                "store_type": null
            },
            {
                "store_name": "ラウンドワン旭川店",
                "store_address": "北海道旭川市永山三条１−４−７",
                "store_map_url": "https://maps.google.com/maps?q=ラウンドワン旭川店@43.78637346773256,142.3974371227539",
                "lat": 43.78637346773256,
                "lng": 142.3974371227539,
                "store_type": null
            },
            {
                "store_name": "SOYUGameField旭川西店",
                "store_address": "北海道旭川市緑町23-2161-3イオンモール旭川西3F",
                "store_map_url": "https://maps.google.com/maps?q=SOYUGameField旭川西店@43.79408719506126,142.32592985504766",
                "lat": 43.79408719506126,
                "lng": 142.32592985504766,
                "store_type": null
            },
            {
                "store_name": "ゲームフィールド旭川春光店",
                "store_address": "北海道旭川市春光町１０番２　イオン旭川春光ＳＣ",
                "store_map_url": "https://maps.google.com/maps?q=ゲームフィールド旭川春光店@43.7927754,142.35565",
                "lat": 43.7927754,
                "lng": 142.35565,
                "store_type": null
            },
            {
                "store_name": "ソユーゲームフィールド旭川駅前店",
                "store_address": "北海道旭川市宮下通７−２−５ｲｵﾝﾓｰﾙ旭川駅前４F",
                "store_map_url": "https://maps.google.com/maps?q=ソユーゲームフィールド旭川駅前店@43.76400559012282,142.3571151023773",
                "lat": 43.76400559012282,
                "lng": 142.3571151023773,
                "store_type": null
            },
            {
                "store_name": "ＧｉＧＯ北見",
                "store_address": "北海道北見市西三輪５丁目１番地１６号",
                "store_map_url": "https://maps.google.com/maps?q=ＧｉＧＯ北見@43.79659750925586,143.84261135337294",
                "lat": 43.79659750925586,
                "lng": 143.84261135337294,
                "store_type": null
            },
            {
                "store_name": "ＢＩＧＢＡＮＧ北見店",
                "store_address": "北海道北見市中央三輪7丁目４４６−１",
                "store_map_url": "https://maps.google.com/maps?q=ＢＩＧＢＡＮＧ北見店@43.79707114010737,143.851401946627",
                "lat": 43.79707114010737,
                "lng": 143.851401946627,
                "store_type": null
            },
            {
                "store_name": "ファンタジープラザ苫小牧",
                "store_address": "北海道苫小牧市木場町1-6-1MEGAドンキホーテ苫小牧2F",
                "store_map_url": "https://maps.google.com/maps?q=ファンタジープラザ苫小牧@42.64104194541994,141.59528535449215",
                "lat": 42.64104194541994,
                "lng": 141.59528535449215,
                "store_type": null
            },
            {
                "store_name": "キャッツアイ苫小牧駅前店",
                "store_address": "北海道苫小牧市木場町１丁目３番地２",
                "store_map_url": "https://maps.google.com/maps?q=キャッツアイ苫小牧駅前店@42.6417399,141.5976863",
                "lat": 42.6417399,
                "lng": 141.5976863,
                "store_type": null
            },
            {
                "store_name": "ＧｉＧＯイオンモール苫小牧",
                "store_address": "北海道苫小牧市柳町３丁目１番２０号イオンモール苫小牧２階",
                "store_map_url": "https://maps.google.com/maps?q=ＧｉＧＯイオンモール苫小牧@42.656318651942605,141.64203722009893",
                "lat": 42.656318651942605,
                "lng": 141.64203722009893,
                "store_type": null
            },
            {
                "store_name": "タイトーステーション 千歳店",
                "store_address": "北海道千歳市北栄２−１２−５",
                "store_map_url": "https://maps.google.com/maps?q=タイトーステーション 千歳店@42.83339419827501,141.645053871164",
                "lat": 42.83339419827501,
                "lng": 141.645053871164,
                "store_type": null
            },
            {
                "store_name": "イオン千歳　キッズパーク",
                "store_address": "北海道千歳市栄町６−６１",
                "store_map_url": "https://maps.google.com/maps?q=イオン千歳　キッズパーク@42.82885573679237,141.64809566613155",
                "lat": 42.82885573679237,
                "lng": 141.64809566613155,
                "store_type": null
            },
            {
                "store_name": "ＰＡＬＯ滝川",
                "store_address": "北海道滝川市東町２丁目２９−１　イオン滝川１Ｆ",
                "store_map_url": "https://maps.google.com/maps?q=ＰＡＬＯ滝川@43.554168340256204,141.93121540317998",
                "lat": 43.554168340256204,
                "lng": 141.93121540317998,
                "store_type": null
            },
            {
                "store_name": "ＢＩＧＢＡＮＧ釧路",
                "store_address": "北海道釧路郡釧路町木場２−１",
                "store_map_url": "https://maps.google.com/maps?q=ＢＩＧＢＡＮＧ釧路@43.008918973170516,144.40800352460633",
                "lat": 43.008918973170516,
                "lng": 144.40800352460633,
                "store_type": null
            },
            {
                "store_name": "ＰＡＬＯ釧路",
                "store_address": "北海道釧路郡釧路町桂木１−１−７　イオン釧路店２F",
                "store_map_url": "https://maps.google.com/maps?q=ＰＡＬＯ釧路@43.0090999,144.4047521",
                "lat": 43.0090999,
                "lng": 144.4047521,
                "store_type": null
            },
            {
                "store_name": "キャッツアイ恵庭店",
                "store_address": "北海道恵庭市住吉町２丁目９−１",
                "store_map_url": "https://maps.google.com/maps?q=キャッツアイ恵庭店@42.875904912029085,141.58350423743445",
                "lat": 42.875904912029085,
                "lng": 141.58350423743445,
                "store_type": null
            },
            {
                "store_name": "ＧｉＧＯ室蘭",
                "store_address": "北海道室蘭市東町４丁目３１番２号１階",
                "store_map_url": "https://maps.google.com/maps?q=ＧｉＧＯ室蘭@42.342172559521146,141.02595662516592",
                "lat": 42.342172559521146,
                "lng": 141.02595662516592,
                "store_type": null
            },
            {
                "store_name": "ＢＩＧＢＡＮＧ室蘭",
                "store_address": "北海道室蘭市中島本町２−８−１",
                "store_map_url": "https://maps.google.com/maps?q=ＢＩＧＢＡＮＧ室蘭@42.35352635249717,141.01454196745908",
                "lat": 42.35352635249717,
                "lng": 141.01454196745908,
                "store_type": null
            },
            {
                "store_name": "ＧｉＧＯ函館昭和",
                "store_address": "北海道函館市昭和３丁目２４−１８ゲオ函館昭和店１階",
                "store_map_url": "https://maps.google.com/maps?q=ＧｉＧＯ函館昭和@41.8192328,140.7345439",
                "lat": 41.8192328,
                "lng": 140.7345439,
                "store_type": null
            },
            {
                "store_name": "ＧｉＧＯＭＥＧＡドン・キホーテ函館",
                "store_address": "北海道函館市美原１−７−１　ＭＥＧＡドン・キホーテ函館店２Ｆ",
                "store_map_url": "https://maps.google.com/maps?q=ＧｉＧＯＭＥＧＡドン・キホーテ函館@41.8135092,140.7562953",
                "lat": 41.8135092,
                "lng": 140.7562953,
                "store_type": null
            },
            {
                "store_name": "ＢＩＧＢＡＮＧ函館",
                "store_address": "北海道函館市梁川町９−３テキサスビル３Ｆ",
                "store_map_url": "https://maps.google.com/maps?q=ＢＩＧＢＡＮＧ函館@41.78903779046837,140.74438390245098",
                "lat": 41.78903779046837,
                "lng": 140.74438390245098,
                "store_type": null
            },
            {
                "store_name": "ラウンドワン函館店",
                "store_address": "北海道函館市西桔梗町８４８−１１",
                "store_map_url": "https://maps.google.com/maps?q=ラウンドワン函館店@41.82463797010178,140.71751477301632",
                "lat": 41.82463797010178,
                "lng": 140.71751477301632,
                "store_type": null
            },
            {
                "store_name": "モーリーファンタジー中標津",
                "store_address": "北海道標津郡中標津町南町３番地１０　東武サウスヒルズ",
                "store_map_url": "https://maps.google.com/maps?q=モーリーファンタジー中標津@43.53623985624306,144.9778039423279",
                "lat": 43.53623985624306,
                "lng": 144.9778039423279,
                "store_type": null
            },
            {
                "store_name": "ＰＡＬＯ網走",
                "store_address": "北海道網走市駒場北５丁目８３番地",
                "store_map_url": "https://maps.google.com/maps?q=ＰＡＬＯ網走@44.0009412171847,144.28394311656757",
                "lat": 44.0009412171847,
                "lng": 144.28394311656757,
                "store_type": null
            },
            {
                "store_name": "キャッツアイ静内店",
                "store_address": "北海道日高郡新ひだか町静内木場町２丁目１−４１",
                "store_map_url": "https://maps.google.com/maps?q=キャッツアイ静内店@42.3414196,142.3556497",
                "lat": 42.3414196,
                "lng": 142.3556497,
                "store_type": null
            },
            {
                "store_name": "モーリーファンタジー三笠店",
                "store_address": "北海道三笠市岡山１０５９−１スーパーセンター１Ｆ",
                "store_map_url": "https://maps.google.com/maps?q=モーリーファンタジー三笠店@43.2435815,141.8055111",
                "lat": 43.2435815,
                "lng": 141.8055111,
                "store_type": null
            },
            {
                "store_name": "ＰＡＬＯ江別",
                "store_address": "北海道江別市幸町35　3F",
                "store_map_url": "https://maps.google.com/maps?q=ＰＡＬＯ江別@43.0969784,141.5336446",
                "lat": 43.0969784,
                "lng": 141.5336446,
                "store_type": null
            },
            {
                "store_name": "イオン紋別　キッズパーク",
                "store_address": "北海道紋別市花園3-4-39",
                "store_map_url": "https://maps.google.com/maps?q=イオン紋別　キッズパーク@44.3495319,143.3478737",
                "lat": 44.3495319,
                "lng": 143.3478737,
                "store_type": null
            }
        ]
    },
    {
        "name": "青森県",
        "stores": [
            {
                "store_name": "ソユーゲームフィールドシーナシーナ青森店",
                "store_address": "青森県青森市浜田一丁目１４番地１シーナシーナ青森２Ｆ",
                "store_map_url": "https://maps.google.com/maps?q=ソユーゲームフィールドシーナシーナ青森店@40.8008129,140.7490542",
                "lat": 40.8008129,
                "lng": 140.7490542,
                "store_type": null
            },
            {
                "store_name": "ラウンドワン青森店",
                "store_address": "青森県青森市浜田３−１−１",
                "store_map_url": "https://maps.google.com/maps?q=ラウンドワン青森店@40.79869392232356,140.7484106079346",
                "lat": 40.79869392232356,
                "lng": 140.7484106079346,
                "store_type": null
            },
            {
                "store_name": "ゲームフェスタミタマ店",
                "store_address": "青森県弘前市駅前町5-5",
                "store_map_url": "https://maps.google.com/maps?q=ゲームフェスタミタマ店@40.5983610428264,140.4835733398811",
                "lat": 40.5983610428264,
                "lng": 140.4835733398811,
                "store_type": null
            },
            {
                "store_name": "ソユースペースファンタジーインフィニ",
                "store_address": "青森県弘前市城東北３−１０−１さくら野百貨店弘前店４Ｆ",
                "store_map_url": "https://maps.google.com/maps?q=ソユースペースファンタジーインフィニ@40.606686,140.4958836",
                "lat": 40.606686,
                "lng": 140.4958836,
                "store_type": null
            },
            {
                "store_name": "ゲームフィールド弘前樋の口店",
                "store_address": "青森県弘前市樋の口二丁目９−６イオンタウン弘前樋の口店",
                "store_map_url": "https://maps.google.com/maps?q=ゲームフィールド弘前樋の口店@40.6027265,140.444168",
                "lat": 40.6027265,
                "lng": 140.444168,
                "store_type": null
            },
            {
                "store_name": "ＧｉＧＯ弘前",
                "store_address": "青森県弘前市末広１−３−３",
                "store_map_url": "https://maps.google.com/maps?q=ＧｉＧＯ弘前@40.6040697,140.4999194",
                "lat": 40.6040697,
                "lng": 140.4999194,
                "store_type": null
            },
            {
                "store_name": "ＧｉＧＯ八戸",
                "store_address": "青森県八戸市城下４−２５−１４",
                "store_map_url": "https://maps.google.com/maps?q=ＧｉＧＯ八戸@40.519927672733814,141.49829220674587",
                "lat": 40.519927672733814,
                "lng": 141.49829220674587,
                "store_type": null
            },
            {
                "store_name": "ゆりの木ボウル",
                "store_address": "青森県八戸市鷹匠小路１０",
                "store_map_url": "https://maps.google.com/maps?q=ゆりの木ボウル@40.506634414930126,141.4932405564141",
                "lat": 40.506634414930126,
                "lng": 141.4932405564141,
                "store_type": null
            },
            {
                "store_name": "ファンタジードーム八戸",
                "store_address": "青森県八戸市江陽２−１４−１",
                "store_map_url": "https://maps.google.com/maps?q=ファンタジードーム八戸@40.52187214782014,141.50270911468044",
                "lat": 40.52187214782014,
                "lng": 141.50270911468044,
                "store_type": null
            },
            {
                "store_name": "ソユーゲームフィールド八戸店",
                "store_address": "青森県八戸市沼館4-7-112八戸ピアドゥＢ棟2F",
                "store_map_url": "https://maps.google.com/maps?q=ソユーゲームフィールド八戸店@40.527767226016266,141.49713381412505",
                "lat": 40.527767226016266,
                "lng": 141.49713381412505,
                "store_type": null
            },
            {
                "store_name": "タイトーＦステーション八戸店",
                "store_address": "青森県八戸市三日町２７",
                "store_map_url": "https://maps.google.com/maps?q=タイトーＦステーション八戸店@40.509307176290925,141.4905810343239",
                "lat": 40.509307176290925,
                "lng": 141.4905810343239,
                "store_type": null
            },
            {
                "store_name": "ユーズランド下田店",
                "store_address": "青森県上北郡おいらせ町中野平４０−１イオンモール下田１Ｆ",
                "store_map_url": "https://maps.google.com/maps?q=ユーズランド下田店@40.6014566,141.41778390000002",
                "lat": 40.6014566,
                "lng": 141.41778390000002,
                "store_type": null
            },
            {
                "store_name": "モーリーファンタジー三沢",
                "store_address": "青森県三沢市松園町３−１０−１ビードルプラザ三沢店１Ｆ",
                "store_map_url": "https://maps.google.com/maps?q=モーリーファンタジー三沢@40.6749926,141.3630299",
                "lat": 40.6749926,
                "lng": 141.3630299,
                "store_type": null
            },
            {
                "store_name": "ゲームランドつがる柏店",
                "store_address": "青森県つがる市柏稲盛幾世41イオンモールつがる柏2F",
                "store_map_url": "https://maps.google.com/maps?q=ゲームランドつがる柏店@40.8026320651684,140.41665451349184",
                "lat": 40.8026320651684,
                "lng": 140.41665451349184,
                "store_type": null
            },
            {
                "store_name": "ＰＡＬＯ五所川原",
                "store_address": "青森県五所川原市大字唐笠柳字藤巻６４１番１　アクロスプラザ",
                "store_map_url": "https://maps.google.com/maps?q=ＰＡＬＯ五所川原@40.80094187284157,140.4614001730164",
                "lat": 40.80094187284157,
                "lng": 140.4614001730164,
                "store_type": null
            },
            {
                "store_name": "ＰＡＬＯむつ",
                "store_address": "青森県むつ市中央２−７−８　１Ｆ",
                "store_map_url": "https://maps.google.com/maps?q=ＰＡＬＯむつ@41.2868804145717,141.18372967976234",
                "lat": 41.2868804145717,
                "lng": 141.18372967976234,
                "store_type": null
            }
        ]
    },
    {
        "name": "岩手県",
        "stores": [
            {
                "store_name": "タイトーステーション 盛岡マッハランド店",
                "store_address": "岩手県盛岡市上堂１−２−３８マッハランド内",
                "store_map_url": "https://maps.google.com/maps?q=タイトーステーション 盛岡マッハランド店@39.723165360686494,141.12645175449222",
                "lat": 39.723165360686494,
                "lng": 141.12645175449222,
                "store_type": null
            },
            {
                "store_name": "サンシャイン",
                "store_address": "岩手県盛岡市大通２ー７ー２１ジュリアンビル１階",
                "store_map_url": "https://maps.google.com/maps?q=サンシャイン@39.70319193803251,141.14543430552249",
                "lat": 39.70319193803251,
                "lng": 141.14543430552249,
                "store_type": null
            },
            {
                "store_name": "ソユーゲームフィールド盛岡南",
                "store_address": "岩手県盛岡市本宮7-1-1ｲｵﾝﾓｰﾙ盛岡南1F",
                "store_map_url": "https://maps.google.com/maps?q=ソユーゲームフィールド盛岡南@39.68356695847018,141.1286693809509",
                "lat": 39.68356695847018,
                "lng": 141.1286693809509,
                "store_type": null
            },
            {
                "store_name": "ラウンドワン盛岡店",
                "store_address": "岩手県盛岡市盛岡駅西通２−１０−３５",
                "store_map_url": "https://maps.google.com/maps?q=ラウンドワン盛岡店@39.7003942,141.1331774",
                "lat": 39.7003942,
                "lng": 141.1331774,
                "store_type": null
            },
            {
                "store_name": "ゲームランド盛岡店",
                "store_address": "岩手県盛岡市前潟４−７−１イオンモール盛岡２Ｆ",
                "store_map_url": "https://maps.google.com/maps?q=ゲームランド盛岡店@39.71160643944135,141.09993207144169",
                "lat": 39.71160643944135,
                "lng": 141.09993207144169,
                "store_type": null
            },
            {
                "store_name": "ＢＩＮＧＯ一関",
                "store_address": "岩手県一関市山目字中野９２−１",
                "store_map_url": "https://maps.google.com/maps?q=ＢＩＮＧＯ一関@38.933759975927046,141.11832127116395",
                "lat": 38.933759975927046,
                "lng": 141.11832127116395,
                "store_type": null
            },
            {
                "store_name": "ソユーファミリーゲームフィールド花巻店",
                "store_address": "岩手県花巻市高木第１６地割６８−６　銀河モール１Ｆ",
                "store_map_url": "https://maps.google.com/maps?q=ソユーファミリーゲームフィールド花巻店@39.3864097,141.1359548",
                "lat": 39.3864097,
                "lng": 141.1359548,
                "store_type": null
            },
            {
                "store_name": "アミューズメントゾーン北上店",
                "store_address": "岩手県北上市本通2-2-1さくら野北上店4F",
                "store_map_url": "https://maps.google.com/maps?q=アミューズメントゾーン北上店@39.28844255476702,141.11582491163938",
                "lat": 39.28844255476702,
                "lng": 141.11582491163938,
                "store_type": null
            },
            {
                "store_name": "チャットタウン北上店",
                "store_address": "岩手県北上市北鬼柳１９地割６８番地　江釣子ＳＣパル２Ｆ",
                "store_map_url": "https://maps.google.com/maps?q=チャットタウン北上店@39.29318789535935,141.0930970725692",
                "lat": 39.29318789535935,
                "lng": 141.0930970725692,
                "store_type": null
            },
            {
                "store_name": "キッズランド",
                "store_address": "岩手県紫波郡紫波町桜町１丁目１２−１　ナックス内キッズランド",
                "store_map_url": "https://maps.google.com/maps?q=キッズランド@39.5490768,141.165242",
                "lat": 39.5490768,
                "lng": 141.165242,
                "store_type": null
            },
            {
                "store_name": "ＰＡＬＯ久慈",
                "store_address": "岩手県久慈市長内町第３０地割３２−２久慈SC１F",
                "store_map_url": "https://maps.google.com/maps?q=ＰＡＬＯ久慈@40.18986157592543,141.78559756403195",
                "lat": 40.18986157592543,
                "lng": 141.78559756403195,
                "store_type": null
            },
            {
                "store_name": "ゲームランドプレーゴ金ケ崎",
                "store_address": "岩手県胆沢郡金ケ崎町三ヶ尻荒巻１６５イオンＳＣ金ヶ崎店内",
                "store_map_url": "https://maps.google.com/maps?q=ゲームランドプレーゴ金ケ崎@39.2195472,141.1012501",
                "lat": 39.2195472,
                "lng": 141.1012501,
                "store_type": null
            },
            {
                "store_name": "ＧｉＧＯ水沢",
                "store_address": "岩手県奥州市水沢区佐倉河字鎧田４−１",
                "store_map_url": "https://maps.google.com/maps?q=ＧｉＧＯ水沢@39.15265691424136,141.14937215034558",
                "lat": 39.15265691424136,
                "lng": 141.14937215034558,
                "store_type": null
            },
            {
                "store_name": "テクノワールド",
                "store_address": "岩手県奥州市江刺区愛宕字梁川127-1",
                "store_map_url": "https://maps.google.com/maps?q=テクノワールド@39.1792419,141.1621682",
                "lat": 39.1792419,
                "lng": 141.1621682,
                "store_type": null
            },
            {
                "store_name": "ソユーゲームフィールド釜石店",
                "store_address": "岩手県釜石市港町２−１−１イオンタウン釜石店３F",
                "store_map_url": "https://maps.google.com/maps?q=ソユーゲームフィールド釜石店@39.2711987516425,141.88180519996945",
                "lat": 39.2711987516425,
                "lng": 141.88180519996945,
                "store_type": null
            }
        ]
    },
    {
        "name": "宮城県",
        "stores": [
            {
                "store_name": "タイトーステーション仙台名掛丁店",
                "store_address": "宮城県仙台市青葉区中央１−７−１３",
                "store_map_url": "https://maps.google.com/maps?q=タイトーステーション仙台名掛丁店@38.26194339084924,140.87920762271915",
                "lat": 38.26194339084924,
                "lng": 140.87920762271915,
                "store_type": null
            },
            {
                "store_name": "ＧｉＧＯ仙台",
                "store_address": "宮城県仙台市青葉区中央２−５−５三経６０ビル",
                "store_map_url": "https://maps.google.com/maps?q=ＧｉＧＯ仙台@38.2616214,140.8767359",
                "lat": 38.2616214,
                "lng": 140.8767359,
                "store_type": null
            },
            {
                "store_name": "ＧｉＧＯ仙台一番町",
                "store_address": "宮城県仙台市青葉区一番町４丁目５番１３号サンシャインビル１階",
                "store_map_url": "https://maps.google.com/maps?q=ＧｉＧＯ仙台一番町@38.2641347,140.8711617",
                "lat": 38.2641347,
                "lng": 140.8711617,
                "store_type": null
            },
            {
                "store_name": "タイトーステーション 仙台クリスロード店",
                "store_address": "宮城県仙台市青葉区中央２−３−２５",
                "store_map_url": "https://maps.google.com/maps?q=タイトーステーション 仙台クリスロード店@38.26100058786955,140.8756067312828",
                "lat": 38.26100058786955,
                "lng": 140.8756067312828,
                "store_type": null
            },
            {
                "store_name": "ゲームコーナー東部",
                "store_address": "宮城県仙台市若林区六丁の目中町26-60 斎喜東部ビル2F",
                "store_map_url": "https://maps.google.com/maps?q=ゲームコーナー東部@38.25099848897897,140.94393691534424",
                "lat": 38.25099848897897,
                "lng": 140.94393691534424,
                "store_type": null
            },
            {
                "store_name": "ＧＡＭＥＢＡＮＫ仙台泉店",
                "store_address": "宮城県仙台市泉区大沢２−５−４",
                "store_map_url": "https://maps.google.com/maps?q=ＧＡＭＥＢＡＮＫ仙台泉店@38.3527525,140.877403",
                "lat": 38.3527525,
                "lng": 140.877403,
                "store_type": null
            },
            {
                "store_name": "ＧｉＧＯイオン仙台中山",
                "store_address": "宮城県仙台市泉区南中山１−３５−５７別館３Ｆ",
                "store_map_url": "https://maps.google.com/maps?q=ＧｉＧＯイオン仙台中山@38.297896075869346,140.8270834629517",
                "lat": 38.297896075869346,
                "lng": 140.8270834629517,
                "store_type": null
            },
            {
                "store_name": "スイーツ・ハート仙台泉大沢店",
                "store_address": "宮城県仙台市泉区大沢1-5-1イオンタウン泉大沢2F",
                "store_map_url": "https://maps.google.com/maps?q=スイーツ・ハート仙台泉大沢店@38.35011792184898,140.88098076931146",
                "lat": 38.35011792184898,
                "lng": 140.88098076931146,
                "store_type": null
            },
            {
                "store_name": "タイトーステーション 仙台ベガロポリス店",
                "store_address": "宮城県仙台市太白区西多賀５−２４−１ベガロポリス内",
                "store_map_url": "https://maps.google.com/maps?q=タイトーステーション 仙台ベガロポリス店@38.2198309,140.8483092",
                "lat": 38.2198309,
                "lng": 140.8483092,
                "store_type": null
            },
            {
                "store_name": "ゲームフィールド仙台長町店",
                "store_address": "宮城県仙台市太白区長町７丁目２０番３号ザ・モール仙台長町店３階",
                "store_map_url": "https://maps.google.com/maps?q=ゲームフィールド仙台長町店@38.2259896,140.8767364",
                "lat": 38.2259896,
                "lng": 140.8767364,
                "store_type": null
            },
            {
                "store_name": "モーリーファンタジーヨドバシ仙台",
                "store_address": "宮城県仙台市宮城野区榴岡１丁目３ー１　ヨドバシ仙台本館５階",
                "store_map_url": "https://maps.google.com/maps?q=モーリーファンタジーヨドバシ仙台@38.2589686,140.8834947",
                "lat": 38.2589686,
                "lng": 140.8834947,
                "store_type": null
            },
            {
                "store_name": "THE 3RD PLANET BiVi仙台店",
                "store_address": "宮城県仙台市宮城野区榴岡2-1-25",
                "store_map_url": "https://maps.google.com/maps?q=THE 3RD PLANET BiVi仙台店@38.26101273020553,140.88374967301638",
                "lat": 38.26101273020553,
                "lng": 140.88374967301638,
                "store_type": null
            },
            {
                "store_name": "ラウンドワン仙台苦竹店",
                "store_address": "宮城県仙台市宮城野区苦竹１−７−１０",
                "store_map_url": "https://maps.google.com/maps?q=ラウンドワン仙台苦竹店@38.2680832,140.9172451",
                "lat": 38.2680832,
                "lng": 140.9172451,
                "store_type": null
            },
            {
                "store_name": "ＧｉＧＯ名取",
                "store_address": "宮城県名取市飯野坂字土城堀５７−１",
                "store_map_url": "https://maps.google.com/maps?q=ＧｉＧＯ名取@38.15656150910931,140.8883653619713",
                "lat": 38.15656150910931,
                "lng": 140.8883653619713,
                "store_type": null
            },
            {
                "store_name": "ｎａｍｃｏイオンモール名取店",
                "store_address": "宮城県名取市杜せきのした5-3-1イオンモール名取2F",
                "store_map_url": "https://maps.google.com/maps?q=ｎａｍｃｏイオンモール名取店@38.16337941623066,140.89634373690944",
                "lat": 38.16337941623066,
                "lng": 140.89634373690944,
                "store_type": null
            },
            {
                "store_name": "ＧｉＧＯ石巻",
                "store_address": "宮城県石巻市大街道東４−１−４５",
                "store_map_url": "https://maps.google.com/maps?q=ＧｉＧＯ石巻@38.429407687062785,141.2853677773155",
                "lat": 38.429407687062785,
                "lng": 141.2853677773155,
                "store_type": null
            },
            {
                "store_name": "プラサカプコン石巻店",
                "store_address": "宮城県石巻市茜平4丁目104番地 ｲｵﾝ石巻ｼｮｯﾋﾟﾝｸﾞｾﾝﾀｰ2F",
                "store_map_url": "https://maps.google.com/maps?q=プラサカプコン石巻店@38.447684149052016,141.26527825219273",
                "lat": 38.447684149052016,
                "lng": 141.26527825219273,
                "store_type": null
            },
            {
                "store_name": "ＧｉＧＯ利府",
                "store_address": "宮城県宮城郡利府町加瀬字新前谷地５５−１",
                "store_map_url": "https://maps.google.com/maps?q=ＧｉＧＯ利府@38.3280286,140.9756113",
                "lat": 38.3280286,
                "lng": 140.9756113,
                "store_type": null
            },
            {
                "store_name": "ＧｉＧＯ佐沼",
                "store_address": "宮城県登米市迫町佐沼字中江２−５−８",
                "store_map_url": "https://maps.google.com/maps?q=ＧｉＧＯ佐沼@38.690444877318974,141.18911814232786",
                "lat": 38.690444877318974,
                "lng": 141.18911814232786,
                "store_type": null
            },
            {
                "store_name": "ゲームランド佐沼店",
                "store_address": "宮城県登米市南方町新島前４６−１イオンタウン佐沼ＳＣ",
                "store_map_url": "https://maps.google.com/maps?q=ゲームランド佐沼店@38.682591540449216,141.18392478042597",
                "lat": 38.682591540449216,
                "lng": 141.18392478042597,
                "store_type": null
            },
            {
                "store_name": "ＳＯＹＵＧａｍｅＦｉｅｌｄ矢本店",
                "store_address": "宮城県東松島市小松字上浮足４３番地イオンタウン矢本",
                "store_map_url": "https://maps.google.com/maps?q=ＳＯＹＵＧａｍｅＦｉｅｌｄ矢本店@38.4251947,141.2029746",
                "lat": 38.4251947,
                "lng": 141.2029746,
                "store_type": null
            },
            {
                "store_name": "モーリーファンタジー古川",
                "store_address": "宮城県大崎市古川旭2-2-1ｲｵﾝ古川店２F",
                "store_map_url": "https://maps.google.com/maps?q=モーリーファンタジー古川@38.567284077816076,140.97278595714715",
                "lat": 38.567284077816076,
                "lng": 140.97278595714715,
                "store_type": null
            },
            {
                "store_name": "ＳＯＹＵ　ＧＡＭＥ　ＦＩＥＬＤ古川店",
                "store_address": "宮城県大崎市古川沢田字筒場浦１５番地イオンタウン古川内",
                "store_map_url": "https://maps.google.com/maps?q=ＳＯＹＵ　ＧＡＭＥ　ＦＩＥＬＤ古川店@38.5990232,140.9741564",
                "lat": 38.5990232,
                "lng": 140.9741564,
                "store_type": null
            },
            {
                "store_name": "アピナ富谷店",
                "store_address": "宮城県富谷市大清水１丁目３３‐１　１０９シネマズ富谷１階",
                "store_map_url": "https://maps.google.com/maps?q=アピナ富谷店@38.3648779,140.8752317",
                "lat": 38.3648779,
                "lng": 140.8752317,
                "store_type": null
            },
            {
                "store_name": "アピナ新利府　北館店",
                "store_address": "宮城県宮城郡利府町利府字新屋田前２２イオンモール新利府北館２",
                "store_map_url": "https://maps.google.com/maps?q=アピナ新利府　北館店@38.3268494,140.9719782",
                "lat": 38.3268494,
                "lng": 140.9719782,
                "store_type": null
            }
        ]
    },
    {
        "name": "秋田県",
        "stores": [
            {
                "store_name": "ＳＯＹＵＧａｍｅＦｉｅｌｄ御所野店",
                "store_address": "秋田県秋田市御所野地蔵田１ー１−１イオンモール秋田２Ｆ",
                "store_map_url": "https://maps.google.com/maps?q=ＳＯＹＵＧａｍｅＦｉｅｌｄ御所野店@39.66341429285994,140.1610980386231",
                "lat": 39.66341429285994,
                "lng": 140.1610980386231,
                "store_type": null
            },
            {
                "store_name": "ＧｉＧＯ秋田",
                "store_address": "秋田県秋田市茨島１−１−１６",
                "store_map_url": "https://maps.google.com/maps?q=ＧｉＧＯ秋田@39.70423417527011,140.10458925767216",
                "lat": 39.70423417527011,
                "lng": 140.10458925767216,
                "store_type": null
            },
            {
                "store_name": "ラウンドワン秋田店",
                "store_address": "秋田県秋田市卸町１−１−２",
                "store_map_url": "https://maps.google.com/maps?q=ラウンドワン秋田店@39.70203189065408,140.1094121037048",
                "lat": 39.70203189065408,
                "lng": 140.1094121037048,
                "store_type": null
            },
            {
                "store_name": "ロックンボウル",
                "store_address": "秋田県秋田市広面字長沼３０１",
                "store_map_url": "https://maps.google.com/maps?q=ロックンボウル@39.71727900539106,140.14344325767206",
                "lat": 39.71727900539106,
                "lng": 140.14344325767206,
                "store_type": null
            },
            {
                "store_name": "ペニーポット秋田",
                "store_address": "秋田県秋田市中通2-8-1フォンテ秋田4F",
                "store_map_url": "https://maps.google.com/maps?q=ペニーポット秋田@39.7163482,140.1276316",
                "lat": 39.7163482,
                "lng": 140.1276316,
                "store_type": null
            },
            {
                "store_name": "ｎａｍｃｏイオンタウン大館西店",
                "store_address": "秋田県大館市根下戸新町18-121イオンタウン大館西内",
                "store_map_url": "https://maps.google.com/maps?q=ｎａｍｃｏイオンタウン大館西店@40.27367784994902,140.53002058650816",
                "lat": 40.27367784994902,
                "lng": 140.53002058650816,
                "store_type": null
            },
            {
                "store_name": "ＳＯＹＵＧａｍｅＦｉｅｌｄ大館店",
                "store_address": "秋田県大館市御成町三丁目７番５８号いとく大館ＳＣ３階",
                "store_map_url": "https://maps.google.com/maps?q=ＳＯＹＵＧａｍｅＦｉｅｌｄ大館店@40.2808817,140.5603404",
                "lat": 40.2808817,
                "lng": 140.5603404,
                "store_type": null
            },
            {
                "store_name": "ゲームフィールド十文字店",
                "store_address": "秋田県横手市十文字町仁井田字東22-1スーパーモールラッキー内",
                "store_map_url": "https://maps.google.com/maps?q=ゲームフィールド十文字店@39.21611388765554,140.52105511415562",
                "lat": 39.21611388765554,
                "lng": 140.52105511415562,
                "store_type": null
            },
            {
                "store_name": "G3ポロス横手南店",
                "store_address": "秋田県横手市婦気大堤字中田4-1ｲｵﾝｽｰﾊﾟｰｾﾝﾀｰ横手南店2階",
                "store_map_url": "https://maps.google.com/maps?q=G3ポロス横手南店@39.29522403515897,140.55225130845952",
                "lat": 39.29522403515897,
                "lng": 140.55225130845952,
                "store_type": null
            },
            {
                "store_name": "プレイランドソピアいとくアクロス能代店",
                "store_address": "秋田県能代市字寺向70いとくアクロス能代店内",
                "store_map_url": "https://maps.google.com/maps?q=プレイランドソピアいとくアクロス能代店@40.1828157,140.0534784",
                "lat": 40.1828157,
                "lng": 140.0534784,
                "store_type": null
            },
            {
                "store_name": "モーリーファンタジー能代",
                "store_address": "秋田県能代市柳町１１−１　３Ｆ",
                "store_map_url": "https://maps.google.com/maps?q=モーリーファンタジー能代@40.20909,140.0246518",
                "lat": 40.20909,
                "lng": 140.0246518,
                "store_type": null
            },
            {
                "store_name": "ＳＯＹＵＧａｍｅＦｉｅｌｄ能代店",
                "store_address": "秋田県能代市鰄渕字古屋布１番イオンタウン能代内",
                "store_map_url": "https://maps.google.com/maps?q=ＳＯＹＵＧａｍｅＦｉｅｌｄ能代店@40.1888271,140.0775041",
                "lat": 40.1888271,
                "lng": 140.0775041,
                "store_type": null
            },
            {
                "store_name": "プラサカプコン大曲店",
                "store_address": "秋田県大仙市和合字坪立１７７イオン大曲ＳＣ２Ｆ",
                "store_map_url": "https://maps.google.com/maps?q=プラサカプコン大曲店@39.4385014,140.5088973",
                "lat": 39.4385014,
                "lng": 140.5088973,
                "store_type": null
            },
            {
                "store_name": "ゲームフィールド鷹巣店",
                "store_address": "秋田県北秋田市栄字前綱76　いとく鷹巣SC内",
                "store_map_url": "https://maps.google.com/maps?q=ゲームフィールド鷹巣店@40.232598,140.3800876",
                "lat": 40.232598,
                "lng": 140.3800876,
                "store_type": null
            },
            {
                "store_name": "モーリーファンタジー本荘",
                "store_address": "秋田県由利本荘市石脇田中１３８番地",
                "store_map_url": "https://maps.google.com/maps?q=モーリーファンタジー本荘@39.3915017,140.0274931",
                "lat": 39.3915017,
                "lng": 140.0274931,
                "store_type": null
            }
        ]
    },
    {
        "name": "山形県",
        "stores": [
            {
                "store_name": "ＧｉＧＯ北山形",
                "store_address": "山形県山形市北町１−３−２０",
                "store_map_url": "https://maps.google.com/maps?q=ＧｉＧＯ北山形@38.268249140541215,140.33135098836055",
                "lat": 38.268249140541215,
                "lng": 140.33135098836055,
                "store_type": null
            },
            {
                "store_name": "トレジャーサバイバル",
                "store_address": "山形県山形市北町２−２−４５",
                "store_map_url": "https://maps.google.com/maps?q=トレジャーサバイバル@38.268743,140.32938",
                "lat": 38.268743,
                "lng": 140.32938,
                "store_type": null
            },
            {
                "store_name": "ビーカム成沢店",
                "store_address": "山形県山形市成沢西５−３−２７",
                "store_map_url": "https://maps.google.com/maps?q=ビーカム成沢店@38.2085455,140.3177274",
                "lat": 38.2085455,
                "lng": 140.3177274,
                "store_type": null
            },
            {
                "store_name": "パルケ・デ・アミーゴ！山形店",
                "store_address": "山形県山形市嶋北１−３−１",
                "store_map_url": "https://maps.google.com/maps?q=パルケ・デ・アミーゴ！山形店@38.2836662,140.3216001",
                "lat": 38.2836662,
                "lng": 140.3216001,
                "store_type": null
            },
            {
                "store_name": "スタジオプリモ山形店",
                "store_address": "山形県山形市城南町１−１−１　霞城セントラル２Ｆ",
                "store_map_url": "https://maps.google.com/maps?q=スタジオプリモ山形店@38.2501614,140.3267779",
                "lat": 38.2501614,
                "lng": 140.3267779,
                "store_type": null
            },
            {
                "store_name": "アピナ鶴岡店",
                "store_address": "山形県鶴岡市文下字広野１−１",
                "store_map_url": "https://maps.google.com/maps?q=アピナ鶴岡店@38.7581391693968,139.84438268843223",
                "lat": 38.7581391693968,
                "lng": 139.84438268843223,
                "store_type": null
            },
            {
                "store_name": "ＧｉＧＯ天童",
                "store_address": "山形県天童市南町１−５−２６",
                "store_map_url": "https://maps.google.com/maps?q=ＧｉＧＯ天童@38.3429386,140.3741282",
                "lat": 38.3429386,
                "lng": 140.3741282,
                "store_type": null
            },
            {
                "store_name": "ソユーゲームフィールド天童店",
                "store_address": "山形県天童市芳賀タウン北４−１−１ イオンモール天童２Ｆ",
                "store_map_url": "https://maps.google.com/maps?q=ソユーゲームフィールド天童店@38.344908866929615,140.36403914022821",
                "lat": 38.344908866929615,
                "lng": 140.36403914022821,
                "store_type": null
            },
            {
                "store_name": "ＧｉＧＯ米沢",
                "store_address": "山形県米沢市大字花沢字タナコ原１７７",
                "store_map_url": "https://maps.google.com/maps?q=ＧｉＧＯ米沢@37.91093651673036,140.1336701841002",
                "lat": 37.91093651673036,
                "lng": 140.1336701841002,
                "store_type": null
            },
            {
                "store_name": "モーリーファンタジー米沢",
                "store_address": "山形県米沢市春日2-13-4　2F",
                "store_map_url": "https://maps.google.com/maps?q=モーリーファンタジー米沢@37.9230092,140.108618",
                "lat": 37.9230092,
                "lng": 140.108618,
                "store_type": null
            },
            {
                "store_name": "ＳＯＹＵＧａｍｅＦｉｅｌｄ酒田店",
                "store_address": "山形県酒田市泉町１９８番地イオンタウン酒田内",
                "store_map_url": "https://maps.google.com/maps?q=ＳＯＹＵＧａｍｅＦｉｅｌｄ酒田店@38.9357019,139.846927",
                "lat": 38.9357019,
                "lng": 139.846927,
                "store_type": null
            },
            {
                "store_name": "ＧｉＧＯ新庄",
                "store_address": "山形県新庄市金沢１０６８",
                "store_map_url": "https://maps.google.com/maps?q=ＧｉＧＯ新庄@38.7646694,140.3084662",
                "lat": 38.7646694,
                "lng": 140.3084662,
                "store_type": null
            },
            {
                "store_name": "ＧｉＧＯ庄内",
                "store_address": "山形県東田川郡三川町猪字大堰端３２６番地６",
                "store_map_url": "https://maps.google.com/maps?q=ＧｉＧＯ庄内@38.819637573498404,139.83486435709676",
                "lat": 38.819637573498404,
                "lng": 139.83486435709676,
                "store_type": null
            },
            {
                "store_name": "ソユーゲームフィールド三川店",
                "store_address": "山形県東田川郡三川町大字猪子字和田庫１２８−１イオン三川１Ｆ",
                "store_map_url": "https://maps.google.com/maps?q=ソユーゲームフィールド三川店@38.81595693815604,139.83545801551793",
                "lat": 38.81595693815604,
                "lng": 139.83545801551793,
                "store_type": null
            },
            {
                "store_name": "モーリーファンタジー東根",
                "store_address": "山形県東根市さくらんぼ駅前３−７−１５ｲｵﾝ東根店２Ｆ",
                "store_map_url": "https://maps.google.com/maps?q=モーリーファンタジー東根@38.4270881,140.3874879",
                "lat": 38.4270881,
                "lng": 140.3874879,
                "store_type": null
            }
        ]
    },
    {
        "name": "福島県",
        "stores": [
            {
                "store_name": "タイトーＦ郡山オリエントパーク店",
                "store_address": "福島県郡山市安積町荒井字大久保３５−１",
                "store_map_url": "https://maps.google.com/maps?q=タイトーＦ郡山オリエントパーク店@37.3744762,140.3487551",
                "lat": 37.3744762,
                "lng": 140.3487551,
                "store_type": null
            },
            {
                "store_name": "ｎａｍｃｏイオンタウン郡山店",
                "store_address": "福島県郡山市松木町２−８８イオンタウン郡山内",
                "store_map_url": "https://maps.google.com/maps?q=ｎａｍｃｏイオンタウン郡山店@37.38929581959281,140.39067530450745",
                "lat": 37.38929581959281,
                "lng": 140.39067530450745,
                "store_type": null
            },
            {
                "store_name": "ＧｉＧＯ日和田",
                "store_address": "福島県郡山市日和田町字西中島７−１",
                "store_map_url": "https://maps.google.com/maps?q=ＧｉＧＯ日和田@37.44820074117053,140.3804128220902",
                "lat": 37.44820074117053,
                "lng": 140.3804128220902,
                "store_type": null
            },
            {
                "store_name": "ラウンドワン郡山店",
                "store_address": "福島県郡山市向河原町４−５５",
                "store_map_url": "https://maps.google.com/maps?q=ラウンドワン郡山店@37.4023215,140.395636",
                "lat": 37.4023215,
                "lng": 140.395636,
                "store_type": null
            },
            {
                "store_name": "ＧｉＧＯ福島南",
                "store_address": "福島県福島市黒岩字中島７−２",
                "store_map_url": "https://maps.google.com/maps?q=ＧｉＧＯ福島南@37.7277789,140.4671413",
                "lat": 37.7277789,
                "lng": 140.4671413,
                "store_type": null
            },
            {
                "store_name": "サープラ福島あそびタウン",
                "store_address": "福島県福島市栄町１−１　パワーシティーピボット内",
                "store_map_url": "https://maps.google.com/maps?q=サープラ福島あそびタウン@37.75427337726991,140.4601862816147",
                "lat": 37.75427337726991,
                "lng": 140.4601862816147,
                "store_type": null
            },
            {
                "store_name": "ＧｉＧＯ福島",
                "store_address": "福島県福島市本内中井１−２",
                "store_map_url": "https://maps.google.com/maps?q=ＧｉＧＯ福島@37.785228678064314,140.48751231779102",
                "lat": 37.785228678064314,
                "lng": 140.48751231779102,
                "store_type": null
            },
            {
                "store_name": "ラウンドワン福島店",
                "store_address": "福島県福島市太田町14-18",
                "store_map_url": "https://maps.google.com/maps?q=ラウンドワン福島店@37.752549134228815,140.45613065767213",
                "lat": 37.752549134228815,
                "lng": 140.45613065767213,
                "store_type": null
            },
            {
                "store_name": "嶺宝スポーツセンター",
                "store_address": "福島県いわき市小名浜住吉折返２−２",
                "store_map_url": "https://maps.google.com/maps?q=嶺宝スポーツセンター@36.9742494549186,140.89055803254087",
                "lat": 36.9742494549186,
                "lng": 140.89055803254087,
                "store_type": null
            },
            {
                "store_name": "ＧｉＧＯ小名浜",
                "store_address": "福島県いわき市小名浜林城字塚前１８−１",
                "store_map_url": "https://maps.google.com/maps?q=ＧｉＧＯ小名浜@36.985930372489236,140.89713489999997",
                "lat": 36.985930372489236,
                "lng": 140.89713489999997,
                "store_type": null
            },
            {
                "store_name": "ソユーゲームフィールド小名浜店",
                "store_address": "福島県いわき市小名浜字辰巳町７９イオンモールいわき小名浜３Ｆ",
                "store_map_url": "https://maps.google.com/maps?q=ソユーゲームフィールド小名浜店@36.9468192,140.9037941",
                "lat": 36.9468192,
                "lng": 140.9037941,
                "store_type": null
            },
            {
                "store_name": "モーリーファンタジーいわき",
                "store_address": "福島県いわき市平字三倉６８−１イオン３Ｆ",
                "store_map_url": "https://maps.google.com/maps?q=モーリーファンタジーいわき@37.0510809,140.8981859",
                "lat": 37.0510809,
                "lng": 140.8981859,
                "store_type": null
            },
            {
                "store_name": "ＧｉＧＯ会津若松",
                "store_address": "福島県会津若松市町北町上荒久田字宮下１４２",
                "store_map_url": "https://maps.google.com/maps?q=ＧｉＧＯ会津若松@37.518311487164766,139.9221731306884",
                "lat": 37.518311487164766,
                "lng": 139.9221731306884,
                "store_type": null
            },
            {
                "store_name": "スウィーツファクトリーパックン会津若松",
                "store_address": "福島県会津若松市幕内南町９−１０　ＭＥＧＡドンキ２階",
                "store_map_url": "https://maps.google.com/maps?q=スウィーツファクトリーパックン会津若松@37.48348387357307,139.9043327597717",
                "lat": 37.48348387357307,
                "lng": 139.9043327597717,
                "store_type": null
            },
            {
                "store_name": "ＧｉＧＯ白河",
                "store_address": "福島県白河市新高山１−１　メガステージ白河内",
                "store_map_url": "https://maps.google.com/maps?q=ＧｉＧＯ白河@37.119316278493336,140.19441793313524",
                "lat": 37.119316278493336,
                "lng": 140.19441793313524,
                "store_type": null
            },
            {
                "store_name": "ＳＯＹＵ　Ｅ−ＳＴＵＤＩＯ須賀川店",
                "store_address": "福島県須賀川市古河１０５イオンタウン須賀川Ｂ棟内",
                "store_map_url": "https://maps.google.com/maps?q=ＳＯＹＵ　Ｅ−ＳＴＵＤＩＯ須賀川店@37.2984206,140.3852977",
                "lat": 37.2984206,
                "lng": 140.3852977,
                "store_type": null
            },
            {
                "store_name": "ＰＡＬＯ喜多方",
                "store_address": "福島県喜多方市字押切南２−４２−１リオンドールガーデンＳＱ内",
                "store_map_url": "https://maps.google.com/maps?q=ＰＡＬＯ喜多方@37.64680716977253,139.8595921062904",
                "lat": 37.64680716977253,
                "lng": 139.8595921062904,
                "store_type": null
            }
        ]
    },
    {
        "name": "茨城県",
        "stores": [
            {
                "store_name": "ＧｉＧＯ水戸",
                "store_address": "茨城県水戸市宮町１−７−４４コムボックス３１０",
                "store_map_url": "https://maps.google.com/maps?q=ＧｉＧＯ水戸@36.3694663,140.4745213",
                "lat": 36.3694663,
                "lng": 140.4745213,
                "store_type": null
            },
            {
                "store_name": "スタジオプリモ水戸店",
                "store_address": "茨城県水戸市宮町１−２−４マイム１F",
                "store_map_url": "https://maps.google.com/maps?q=スタジオプリモ水戸店@36.3714779,140.4774261",
                "lat": 36.3714779,
                "lng": 140.4774261,
                "store_type": null
            },
            {
                "store_name": "ピンクパンサー水戸赤塚店",
                "store_address": "茨城県水戸市河和田1-1",
                "store_map_url": "https://maps.google.com/maps?q=ピンクパンサー水戸赤塚店@36.38044168474524,140.4137529957702",
                "lat": 36.38044168474524,
                "lng": 140.4137529957702,
                "store_type": null
            },
            {
                "store_name": "ゲームメガ水戸けやき台店",
                "store_address": "茨城県水戸市酒門町３２７６−１",
                "store_map_url": "https://maps.google.com/maps?q=ゲームメガ水戸けやき台店@36.33796237938347,140.4832287269836",
                "lat": 36.33796237938347,
                "lng": 140.4832287269836,
                "store_type": null
            },
            {
                "store_name": "ユーズランド水戸内原店",
                "store_address": "茨城県水戸市内原２−１イオンモール水戸内原２Ｆ",
                "store_map_url": "https://maps.google.com/maps?q=ユーズランド水戸内原店@36.37396288950651,140.35838955980228",
                "lat": 36.37396288950651,
                "lng": 140.35838955980228,
                "store_type": null
            },
            {
                "store_name": "ＧｉＧＯ水戸南",
                "store_address": "茨城県水戸市千波町２０１７−１",
                "store_map_url": "https://maps.google.com/maps?q=ＧｉＧＯ水戸南@36.350324542678344,140.44300017472995",
                "lat": 36.350324542678344,
                "lng": 140.44300017472995,
                "store_type": null
            },
            {
                "store_name": "ＧｉＧＯ日立",
                "store_address": "茨城県日立市田尻町３−２６−１",
                "store_map_url": "https://maps.google.com/maps?q=ＧｉＧＯ日立@36.62643121998619,140.66985826878658",
                "lat": 36.62643121998619,
                "lng": 140.66985826878658,
                "store_type": null
            },
            {
                "store_name": "ゲームメガ日立店",
                "store_address": "茨城県日立市東多賀町５−１０−１０",
                "store_map_url": "https://maps.google.com/maps?q=ゲームメガ日立店@36.548234,140.6305081",
                "lat": 36.548234,
                "lng": 140.6305081,
                "store_type": null
            },
            {
                "store_name": "アミューズビバ",
                "store_address": "茨城県ひたちなか市東大島２−１１−１１",
                "store_map_url": "https://maps.google.com/maps?q=アミューズビバ@36.406375,140.5318511",
                "lat": 36.406375,
                "lng": 140.5318511,
                "store_type": null
            },
            {
                "store_name": "ＧｉＧＯひたちなか",
                "store_address": "茨城県ひたちなか市田中後４０−２",
                "store_map_url": "https://maps.google.com/maps?q=ＧｉＧＯひたちなか@36.34750772741275,140.58008936560668",
                "lat": 36.34750772741275,
                "lng": 140.58008936560668,
                "store_type": null
            },
            {
                "store_name": "ＧｉＧＯＭＥＧＡドン・キホーテ勝田",
                "store_address": "茨城県ひたちなか市石川町１−１ＭＥＧＡドン・キホーテ勝田店２Ｆ",
                "store_map_url": "https://maps.google.com/maps?q=ＧｉＧＯＭＥＧＡドン・キホーテ勝田@36.3931124,140.5274577",
                "lat": 36.3931124,
                "lng": 140.5274577,
                "store_type": null
            },
            {
                "store_name": "ゲームメガつくば店",
                "store_address": "茨城県つくば市小野崎１７７−２",
                "store_map_url": "https://maps.google.com/maps?q=ゲームメガつくば店@36.0768508,140.1047378",
                "lat": 36.0768508,
                "lng": 140.1047378,
                "store_type": null
            },
            {
                "store_name": "ＧｉＧＯデイズタウンつくば",
                "store_address": "茨城県つくば市竹園１—９−２デイズタウンつくば地下１Ｆ",
                "store_map_url": "https://maps.google.com/maps?q=ＧｉＧＯデイズタウンつくば@36.07772936300693,140.11533164180298",
                "lat": 36.07772936300693,
                "lng": 140.11533164180298,
                "store_type": null
            },
            {
                "store_name": "ｎａｍｃｏiiasつくば店",
                "store_address": "茨城県つくば市研究学園5-19　iiasつくば店2F2190",
                "store_map_url": "https://maps.google.com/maps?q=ｎａｍｃｏiiasつくば店@36.08642926353531,140.0838117486877",
                "lat": 36.08642926353531,
                "lng": 140.0838117486877,
                "store_type": null
            },
            {
                "store_name": "ｎａｍｃｏイオンモールつくば店",
                "store_address": "茨城県つくば市稲岡66-1ｲｵﾝﾓｰﾙつくば店3F",
                "store_map_url": "https://maps.google.com/maps?q=ｎａｍｃｏイオンモールつくば店@36.033660886688686,140.1320541264588",
                "lat": 36.033660886688686,
                "lng": 140.1320541264588,
                "store_type": null
            },
            {
                "store_name": "ＧｉＧＯトナリエクレオつくば",
                "store_address": "茨城県つくば市吾妻１丁目７−１　トナリエクレオ３Ｆ",
                "store_map_url": "https://maps.google.com/maps?q=ＧｉＧＯトナリエクレオつくば@36.0805071,140.1117159",
                "lat": 36.0805071,
                "lng": 140.1117159,
                "store_type": null
            },
            {
                "store_name": "ＧｉＧＯ石岡",
                "store_address": "茨城県石岡市東大橋中峯１９７６−１",
                "store_map_url": "https://maps.google.com/maps?q=ＧｉＧＯ石岡@36.1986319157943,140.30338608650823",
                "lat": 36.1986319157943,
                "lng": 140.30338608650823,
                "store_type": null
            },
            {
                "store_name": "アミューズメントパレスワンダーヴュー阿見",
                "store_address": "茨城県稲敷郡阿見町大字阿見２９５８ショッピングセンター２階",
                "store_map_url": "https://maps.google.com/maps?q=アミューズメントパレスワンダーヴュー阿見@36.0422643589521,140.21005101415562",
                "lat": 36.0422643589521,
                "lng": 140.21005101415562,
                "store_type": null
            },
            {
                "store_name": "ピンクパンサー下妻店",
                "store_address": "茨城県下妻市小島884-10",
                "store_map_url": "https://maps.google.com/maps?q=ピンクパンサー下妻店@36.1702653,139.9665309",
                "lat": 36.1702653,
                "lng": 139.9665309,
                "store_type": null
            },
            {
                "store_name": "モーリーファンタジー下妻",
                "store_address": "茨城県下妻市掘籠９７２−１イオン下妻店2F",
                "store_map_url": "https://maps.google.com/maps?q=モーリーファンタジー下妻@36.190045892870664,139.98972162229006",
                "lat": 36.190045892870664,
                "lng": 139.98972162229006,
                "store_type": null
            },
            {
                "store_name": "ゲームパニックつくば",
                "store_address": "茨城県土浦市中村東1-1-1サンタスワールド内",
                "store_map_url": "https://maps.google.com/maps?q=ゲームパニックつくば@36.0463834,140.1682228",
                "lat": 36.0463834,
                "lng": 140.1682228,
                "store_type": null
            },
            {
                "store_name": "楽市楽座イオンモール土浦店",
                "store_address": "茨城県土浦市上高津３６７イオンモール土浦ＳＣ３階",
                "store_map_url": "https://maps.google.com/maps?q=楽市楽座イオンモール土浦店@36.0800877,140.1808547",
                "lat": 36.0800877,
                "lng": 140.1808547,
                "store_type": null
            },
            {
                "store_name": "ピンクパンサー土浦店",
                "store_address": "茨城県土浦市木田余４５８５−３",
                "store_map_url": "https://maps.google.com/maps?q=ピンクパンサー土浦店@36.1065463,140.2151975",
                "lat": 36.1065463,
                "lng": 140.2151975,
                "store_type": null
            },
            {
                "store_name": "ＦＥＳＴＡ古河店",
                "store_address": "茨城県古河市松並２−１８−１０マーケットシティ古河",
                "store_map_url": "https://maps.google.com/maps?q=ＦＥＳＴＡ古河店@36.209713594169415,139.709653102655",
                "lat": 36.209713594169415,
                "lng": 139.709653102655,
                "store_type": null
            },
            {
                "store_name": "ＧＡＭＥ ＰＡＤＤＯＣＫ＋１",
                "store_address": "茨城県古河市小堤１９１６−１",
                "store_map_url": "https://maps.google.com/maps?q=ＧＡＭＥ ＰＡＤＤＯＣＫ＋１@36.2067383,139.7578725",
                "lat": 36.2067383,
                "lng": 139.7578725,
                "store_type": null
            },
            {
                "store_name": "ＧｉＧＯショッピングセンターチェリオ鹿嶋",
                "store_address": "茨城県鹿嶋市宮中２９０−１ショッピングセンターチェリオ１階",
                "store_map_url": "https://maps.google.com/maps?q=ＧｉＧＯショッピングセンターチェリオ鹿嶋@35.959598578005476,140.64375415886082",
                "lat": 35.959598578005476,
                "lng": 140.64375415886082,
                "store_type": null
            },
            {
                "store_name": "ＳＯＹＵ　ＴＯＹ’Ｓ　ＮＹ　守谷店",
                "store_address": "茨城県守谷市百合ヶ丘3-249-1　イオンタウン守谷2Ｆ",
                "store_map_url": "https://maps.google.com/maps?q=ＳＯＹＵ　ＴＯＹ’Ｓ　ＮＹ　守谷店@35.94479432347796,139.99060060904537",
                "lat": 35.94479432347796,
                "lng": 139.99060060904537,
                "store_type": null
            },
            {
                "store_name": "ＧｉＧＯ神栖",
                "store_address": "茨城県神栖市神栖１ー８−１",
                "store_map_url": "https://maps.google.com/maps?q=ＧｉＧＯ神栖@35.8979951,140.6444094",
                "lat": 35.8979951,
                "lng": 140.6444094,
                "store_type": null
            },
            {
                "store_name": "ゲームメガみらい平店",
                "store_address": "茨城県つくばみらい市陽光台１−１４−１",
                "store_map_url": "https://maps.google.com/maps?q=ゲームメガみらい平店@35.995524428765755,140.0406751203766",
                "lat": 35.995524428765755,
                "lng": 140.0406751203766,
                "store_type": null
            },
            {
                "store_name": "アピナ下館店",
                "store_address": "茨城県筑西市玉戸１０１２−３",
                "store_map_url": "https://maps.google.com/maps?q=アピナ下館店@36.295425571270805,139.94568928413082",
                "lat": 36.295425571270805,
                "lng": 139.94568928413082,
                "store_type": null
            },
            {
                "store_name": "タイトーＦステーションヨークタウン坂東店",
                "store_address": "茨城県坂東市辺田１１０４番地１",
                "store_map_url": "https://maps.google.com/maps?q=タイトーＦステーションヨークタウン坂東店@36.037623995918885,139.8922447294998",
                "lat": 36.037623995918885,
                "lng": 139.8922447294998,
                "store_type": null
            },
            {
                "store_name": "ＧｉＧＯ霞ヶ浦",
                "store_address": "茨城県稲敷市西代１４７３−１",
                "store_map_url": "https://maps.google.com/maps?q=ＧｉＧＯ霞ヶ浦@35.9183324,140.4848113",
                "lat": 35.9183324,
                "lng": 140.4848113,
                "store_type": null
            }
        ]
    },
    {
        "name": "栃木県",
        "stores": [
            {
                "store_name": "ｎａｍｃｏフェドラＰ＆Ｄ佐野店",
                "store_address": "栃木県佐野市高萩町１３４０",
                "store_map_url": "https://maps.google.com/maps?q=ｎａｍｃｏフェドラＰ＆Ｄ佐野店@36.2973133,139.6056474",
                "lat": 36.2973133,
                "lng": 139.6056474,
                "store_type": null
            },
            {
                "store_name": "シーサイドリゾートアミューズメントパーク",
                "store_address": "栃木県宇都宮市睦町７−３",
                "store_map_url": "https://maps.google.com/maps?q=シーサイドリゾートアミューズメントパーク@36.5632663,139.8603778",
                "lat": 36.5632663,
                "lng": 139.8603778,
                "store_type": null
            },
            {
                "store_name": "ＧｉＧＯ宇都宮",
                "store_address": "栃木県宇都宮市東宿郷５−１−７",
                "store_map_url": "https://maps.google.com/maps?q=ＧｉＧＯ宇都宮@36.5583104,139.9088155",
                "lat": 36.5583104,
                "lng": 139.9088155,
                "store_type": null
            },
            {
                "store_name": "ｎａｍｃｏ宇都宮店",
                "store_address": "栃木県宇都宮市簗瀬町１６０６−１　Ｐ＆Ｄビル",
                "store_map_url": "https://maps.google.com/maps?q=ｎａｍｃｏ宇都宮店@36.5438973,139.8915485",
                "lat": 36.5438973,
                "lng": 139.8915485,
                "store_type": null
            },
            {
                "store_name": "スタジオプリモ宇都宮店",
                "store_address": "栃木県宇都宮市曲師町2-8宇都宮フェスタ1F",
                "store_map_url": "https://maps.google.com/maps?q=スタジオプリモ宇都宮店@36.5603923,139.884618",
                "lat": 36.5603923,
                "lng": 139.884618,
                "store_type": null
            },
            {
                "store_name": "タイトーステーション 宇都宮ベルモール店",
                "store_address": "栃木県宇都宮市陽東６−２−１ベルモール内２Ｆ",
                "store_map_url": "https://maps.google.com/maps?q=タイトーステーション 宇都宮ベルモール店@36.55602815330737,139.9281451079346",
                "lat": 36.55602815330737,
                "lng": 139.9281451079346,
                "store_type": null
            },
            {
                "store_name": "ラウンドワン宇都宮店",
                "store_address": "栃木県宇都宮市江曽島町２０７２−１",
                "store_map_url": "https://maps.google.com/maps?q=ラウンドワン宇都宮店@36.5406864,139.8868934",
                "lat": 36.5406864,
                "lng": 139.8868934,
                "store_type": null
            },
            {
                "store_name": "テクモピアパルテロン宇都宮店",
                "store_address": "栃木県宇都宮市今泉町２３７福田屋ＳＰ宇都宮２Ｆ",
                "store_map_url": "https://maps.google.com/maps?q=テクモピアパルテロン宇都宮店@36.574274015333216,139.9005652632294",
                "lat": 36.574274015333216,
                "lng": 139.9005652632294,
                "store_type": null
            },
            {
                "store_name": "INTER PARK+1宇都宮",
                "store_address": "栃木県宇都宮市インターパーク６−５−１",
                "store_map_url": "https://maps.google.com/maps?q=INTER PARK+1宇都宮@36.4881173,139.905569",
                "lat": 36.4881173,
                "lng": 139.905569,
                "store_type": null
            },
            {
                "store_name": "TFSトナリエ宇都宮",
                "store_address": "栃木県宇都宮市駅前通り１丁目４番６号トナリエ宇都宮",
                "store_map_url": "https://maps.google.com/maps?q=TFSトナリエ宇都宮@36.56046432398651,139.8969966294478",
                "lat": 36.56046432398651,
                "lng": 139.8969966294478,
                "store_type": null
            },
            {
                "store_name": "ファンタジーランドガルー宇都宮店",
                "store_address": "栃木県宇都宮市江曽島本町22-7アピタ宇都宮店2Ｆ",
                "store_map_url": "https://maps.google.com/maps?q=ファンタジーランドガルー宇都宮店@36.5315924,139.8669094",
                "lat": 36.5315924,
                "lng": 139.8669094,
                "store_type": null
            },
            {
                "store_name": "タイトーＦステーション小山店",
                "store_address": "栃木県小山市喜沢1475ハーヴェストウォーク内スポーツシネマ棟",
                "store_map_url": "https://maps.google.com/maps?q=タイトーＦステーション小山店@36.33614382544548,139.80737963572085",
                "lat": 36.33614382544548,
                "lng": 139.80737963572085,
                "store_type": null
            },
            {
                "store_name": "ＧｉＧＯ小山",
                "store_address": "栃木県小山市東城南１−１−１８",
                "store_map_url": "https://maps.google.com/maps?q=ＧｉＧＯ小山@36.2989766,139.8101635",
                "lat": 36.2989766,
                "lng": 139.8101635,
                "store_type": null
            },
            {
                "store_name": "アピナ小山店",
                "store_address": "栃木県小山市駅南町４−２７−１８",
                "store_map_url": "https://maps.google.com/maps?q=アピナ小山店@36.30040103988819,139.80912381163944",
                "lat": 36.30040103988819,
                "lng": 139.80912381163944,
                "store_type": null
            },
            {
                "store_name": "ＫＯＫＡＤＯタウン小山店",
                "store_address": "栃木県小山市中久喜1467-1ｲｵﾝﾓｰﾙ小山店2F",
                "store_map_url": "https://maps.google.com/maps?q=ＫＯＫＡＤＯタウン小山店@36.32207656974469,139.84096613068846",
                "lat": 36.32207656974469,
                "lng": 139.84096613068846,
                "store_type": null
            },
            {
                "store_name": "ＧＡＭＥ　ＧＥＴーＢｅｅ　ＶＡＬ小山店",
                "store_address": "栃木県小山市城山町３丁目３番地２２号",
                "store_map_url": "https://maps.google.com/maps?q=ＧＡＭＥ　ＧＥＴーＢｅｅ　ＶＡＬ小山店@36.3126948,139.8066084",
                "lat": 36.3126948,
                "lng": 139.8066084,
                "store_type": null
            },
            {
                "store_name": "ＧｉＧＯ日光",
                "store_address": "栃木県日光市芹沼１４４８−１",
                "store_map_url": "https://maps.google.com/maps?q=ＧｉＧＯ日光@36.74109486411821,139.7101396613075",
                "lat": 36.74109486411821,
                "lng": 139.7101396613075,
                "store_type": null
            },
            {
                "store_name": "ドラマ足利店",
                "store_address": "栃木県足利市朝倉町244-1",
                "store_map_url": "https://maps.google.com/maps?q=ドラマ足利店@36.32249071212465,139.45034310000005",
                "lat": 36.32249071212465,
                "lng": 139.45034310000005,
                "store_type": null
            },
            {
                "store_name": "アドアーズアシコタウンあしかが",
                "store_address": "栃木県足利市大月町３番地２　アシコタウンあしかが",
                "store_map_url": "https://maps.google.com/maps?q=アドアーズアシコタウンあしかが@36.33664,139.4779066",
                "lat": 36.33664,
                "lng": 139.4779066,
                "store_type": null
            },
            {
                "store_name": "大田原スポーツランド",
                "store_address": "栃木県那須塩原市一区町１０４−６０",
                "store_map_url": "https://maps.google.com/maps?q=大田原スポーツランド@36.8519301,139.993356",
                "lat": 36.8519301,
                "lng": 139.993356,
                "store_type": null
            },
            {
                "store_name": "ＧｉＧＯ西那須野",
                "store_address": "栃木県那須塩原市南郷屋２−１０６−２７",
                "store_map_url": "https://maps.google.com/maps?q=ＧｉＧＯ西那須野@36.895119,139.9822381",
                "lat": 36.895119,
                "lng": 139.9822381,
                "store_type": null
            },
            {
                "store_name": "ＰＡＬＯ石橋",
                "store_address": "栃木県下野市下古山３３６２−１ヨークタウン",
                "store_map_url": "https://maps.google.com/maps?q=ＰＡＬＯ石橋@36.468733,139.8693837",
                "lat": 36.468733,
                "lng": 139.8693837,
                "store_type": null
            },
            {
                "store_name": "アピナ宇都宮店",
                "store_address": "栃木県河内郡上三川町磯岡４２１ー１ジョイフル本田宇都宮店２階",
                "store_map_url": "https://maps.google.com/maps?q=アピナ宇都宮店@36.4801944,139.9082222",
                "lat": 36.4801944,
                "lng": 139.9082222,
                "store_type": null
            }
        ]
    },
    {
        "name": "群馬県",
        "stores": [
            {
                "store_name": "タイト—Ｆステーション高崎オ—パ店",
                "store_address": "群馬県高崎市八島町４６−１　高崎オ—パ７階",
                "store_map_url": "https://maps.google.com/maps?q=タイト—Ｆステーション高崎オ—パ店@36.3230805,139.0110729",
                "lat": 36.3230805,
                "lng": 139.0110729,
                "store_type": null
            },
            {
                "store_name": "群馬レジャーランド高崎駅東口店",
                "store_address": "群馬県高崎市江木町３３３−１高崎ＥＸビル",
                "store_map_url": "https://maps.google.com/maps?q=群馬レジャーランド高崎駅東口店@36.329871607750796,139.01285747976226",
                "lat": 36.329871607750796,
                "lng": 139.01285747976226,
                "store_type": null
            },
            {
                "store_name": "ユーズランド高崎店",
                "store_address": "群馬県高崎市棟高町１４００番地イオンモール高崎２Ｆ",
                "store_map_url": "https://maps.google.com/maps?q=ユーズランド高崎店@36.39048202673971,139.00653036745916",
                "lat": 36.39048202673971,
                "lng": 139.00653036745916,
                "store_type": null
            },
            {
                "store_name": "インターワールド伊勢崎店",
                "store_address": "群馬県伊勢崎市宮子町３４２５−４",
                "store_map_url": "https://maps.google.com/maps?q=インターワールド伊勢崎店@36.331521364766225,139.1625032754631",
                "lat": 36.331521364766225,
                "lng": 139.1625032754631,
                "store_type": null
            },
            {
                "store_name": "群馬レジャーランド伊勢崎店",
                "store_address": "群馬県伊勢崎市連取町3066-1",
                "store_map_url": "https://maps.google.com/maps?q=群馬レジャーランド伊勢崎店@36.31821284280695,139.1723709085984",
                "lat": 36.31821284280695,
                "lng": 139.1723709085984,
                "store_type": null
            },
            {
                "store_name": "ＧｉＧＯスマーク伊勢崎",
                "store_address": "群馬県伊勢崎市西小保方町３６８スマーク伊勢崎３Ｆ　３０２区画",
                "store_map_url": "https://maps.google.com/maps?q=ＧｉＧＯスマーク伊勢崎@36.3391744,139.2330425",
                "lat": 36.3391744,
                "lng": 139.2330425,
                "store_type": null
            },
            {
                "store_name": "群馬レジャーランド藤岡店",
                "store_address": "群馬県藤岡市中2002-1",
                "store_map_url": "https://maps.google.com/maps?q=群馬レジャーランド藤岡店@36.2743443,139.0718665",
                "lat": 36.2743443,
                "lng": 139.0718665,
                "store_type": null
            },
            {
                "store_name": "群馬レジャーランド太田店",
                "store_address": "群馬県太田市西矢島町162-2",
                "store_map_url": "https://maps.google.com/maps?q=群馬レジャーランド太田店@36.2681054242821,139.37592511045068",
                "lat": 36.2681054242821,
                "lng": 139.37592511045068,
                "store_type": null
            },
            {
                "store_name": "ＧｉＧＯ太田",
                "store_address": "群馬県太田市西矢島町５７５−１",
                "store_map_url": "https://maps.google.com/maps?q=ＧｉＧＯ太田@36.27455388512081,139.37808433921737",
                "lat": 36.27455388512081,
                "lng": 139.37808433921737,
                "store_type": null
            },
            {
                "store_name": "アピナ太田店",
                "store_address": "群馬県太田市内ケ島町９０７−１",
                "store_map_url": "https://maps.google.com/maps?q=アピナ太田店@36.2829707,139.3984248",
                "lat": 36.2829707,
                "lng": 139.3984248,
                "store_type": null
            },
            {
                "store_name": "ユーズランド太田店",
                "store_address": "群馬県太田市石原町８１番地イオンモール太田２Ｆ",
                "store_map_url": "https://maps.google.com/maps?q=ユーズランド太田店@36.29414404426112,139.4004361779098",
                "lat": 36.29414404426112,
                "lng": 139.4004361779098,
                "store_type": null
            },
            {
                "store_name": "ＧｉＧＯ館林",
                "store_address": "群馬県館林市小桑原町９４９−１",
                "store_map_url": "https://maps.google.com/maps?q=ＧｉＧＯ館林@36.235220968803056,139.52032869916684",
                "lat": 36.235220968803056,
                "lng": 139.52032869916684,
                "store_type": null
            },
            {
                "store_name": "ラウンドワン前橋店",
                "store_address": "群馬県前橋市天川大島町１１０１−１",
                "store_map_url": "https://maps.google.com/maps?q=ラウンドワン前橋店@36.3687628,139.1052489",
                "lat": 36.3687628,
                "lng": 139.1052489,
                "store_type": null
            },
            {
                "store_name": "ｎａｍｃｏけやきウォーク前橋",
                "store_address": "群馬県前橋市文京町２−１−１けやきウォーク前橋2F",
                "store_map_url": "https://maps.google.com/maps?q=ｎａｍｃｏけやきウォーク前橋@36.37914124951254,139.07808649318463",
                "lat": 36.37914124951254,
                "lng": 139.07808649318463,
                "store_type": null
            },
            {
                "store_name": "群馬レジャーランド渋川店",
                "store_address": "群馬県渋川市八木原1364",
                "store_map_url": "https://maps.google.com/maps?q=群馬レジャーランド渋川店@36.474194854142326,139.0153797220902",
                "lat": 36.474194854142326,
                "lng": 139.0153797220902,
                "store_type": null
            },
            {
                "store_name": "ＧｉＧＯ沼田",
                "store_address": "群馬県沼田市下久屋町１１００−１",
                "store_map_url": "https://maps.google.com/maps?q=ＧｉＧＯ沼田@36.65677554724194,139.07806910926206",
                "lat": 36.65677554724194,
                "lng": 139.07806910926206,
                "store_type": null
            },
            {
                "store_name": "宝島大間々店",
                "store_address": "群馬県みどり市大間々町大間々４０番地さくらもーる２Ｆ",
                "store_map_url": "https://maps.google.com/maps?q=宝島大間々店@36.4135415,139.2813788",
                "lat": 36.4135415,
                "lng": 139.2813788,
                "store_type": null
            },
            {
                "store_name": "ＧｉＧＯＭＥＧＡドン・キホーテ桐生",
                "store_address": "群馬県桐生市永楽町５−１０ＭＥＧＡドン・キホーテ桐生店３Ｆ",
                "store_map_url": "https://maps.google.com/maps?q=ＧｉＧＯＭＥＧＡドン・キホーテ桐生@36.41249440512736,139.33585527459104",
                "lat": 36.41249440512736,
                "lng": 139.33585527459104,
                "store_type": null
            }
        ]
    },
    {
        "name": "埼玉県",
        "stores": [
            {
                "store_name": "ＧｉＧＯ川口",
                "store_address": "埼玉県川口市東領家２−２−１０",
                "store_map_url": "https://maps.google.com/maps?q=ＧｉＧＯ川口@35.7948507698797,139.74752854232793",
                "lat": 35.7948507698797,
                "lng": 139.74752854232793,
                "store_type": null
            },
            {
                "store_name": "シルクハット川口",
                "store_address": "埼玉県川口市栄町３−１−１６イート川口ビル４Ｆ",
                "store_map_url": "https://maps.google.com/maps?q=シルクハット川口@35.8030674709039,139.71744521163941",
                "lat": 35.8030674709039,
                "lng": 139.71744521163941,
                "store_type": null
            },
            {
                "store_name": "ゲームシティ川口店",
                "store_address": "埼玉県川口市栄町1-10-5",
                "store_map_url": "https://maps.google.com/maps?q=ゲームシティ川口店@35.8025278,139.7256101",
                "lat": 35.8025278,
                "lng": 139.7256101,
                "store_type": null
            },
            {
                "store_name": "楽市楽座イオンモール川口前川店",
                "store_address": "埼玉県川口市前川1-1-11イオンモール川口前川店3F",
                "store_map_url": "https://maps.google.com/maps?q=楽市楽座イオンモール川口前川店@35.8341858,139.707058",
                "lat": 35.8341858,
                "lng": 139.707058,
                "store_type": null
            },
            {
                "store_name": "ソユーゲームフィールド川口店",
                "store_address": "埼玉県川口市並木元町１−７９　アリオ川口３Ｆ",
                "store_map_url": "https://maps.google.com/maps?q=ソユーゲームフィールド川口店@35.80711807422785,139.71413492275394",
                "lat": 35.80711807422785,
                "lng": 139.71413492275394,
                "store_type": null
            },
            {
                "store_name": "アミュージアム川口店",
                "store_address": "埼玉県川口市本町２−７−２５ミエルかわぐち３Ｆ",
                "store_map_url": "https://maps.google.com/maps?q=アミュージアム川口店@35.8010343,139.727363",
                "lat": 35.8010343,
                "lng": 139.727363,
                "store_type": null
            },
            {
                "store_name": "タイトーステーション 所沢店",
                "store_address": "埼玉県所沢市日吉町３−７",
                "store_map_url": "https://maps.google.com/maps?q=タイトーステーション 所沢店@35.7880928,139.4723684",
                "lat": 35.7880928,
                "lng": 139.4723684,
                "store_type": null
            },
            {
                "store_name": "ＧｉＧＯ所沢",
                "store_address": "埼玉県所沢市日吉町８−１",
                "store_map_url": "https://maps.google.com/maps?q=ＧｉＧＯ所沢@35.788476,139.471899",
                "lat": 35.788476,
                "lng": 139.471899,
                "store_type": null
            },
            {
                "store_name": "キャロム所沢店",
                "store_address": "埼玉県所沢市下安松969-1",
                "store_map_url": "https://maps.google.com/maps?q=キャロム所沢店@35.791518,139.5041488",
                "lat": 35.791518,
                "lng": 139.5041488,
                "store_type": null
            },
            {
                "store_name": "ラウンドワン所沢店",
                "store_address": "埼玉県所沢市東町５丁目２２　６階",
                "store_map_url": "https://maps.google.com/maps?q=ラウンドワン所沢店@35.7888614,139.469562",
                "lat": 35.7888614,
                "lng": 139.469562,
                "store_type": null
            },
            {
                "store_name": "ｎａｍｃｏエミテラス所沢",
                "store_address": "埼玉県所沢市東住吉１０−１　エミテラス所沢４階",
                "store_map_url": "https://maps.google.com/maps?q=ｎａｍｃｏエミテラス所沢@35.7853396,139.4708657",
                "lat": 35.7853396,
                "lng": 139.4708657,
                "store_type": null
            },
            {
                "store_name": "キャロム坂戸店",
                "store_address": "埼玉県坂戸市関間2-151-1",
                "store_map_url": "https://maps.google.com/maps?q=キャロム坂戸店@35.9526038,139.3985338",
                "lat": 35.9526038,
                "lng": 139.3985338,
                "store_type": null
            },
            {
                "store_name": "埼玉レジャーランド春日部店",
                "store_address": "埼玉県春日部市大字増富字谷際163-1",
                "store_map_url": "https://maps.google.com/maps?q=埼玉レジャーランド春日部店@35.9593592,139.7292399",
                "lat": 35.9593592,
                "lng": 139.7292399,
                "store_type": null
            },
            {
                "store_name": "ユーズランド春日部店",
                "store_address": "埼玉県春日部市下柳４２０−１イオンモール春日部２Ｆ",
                "store_map_url": "https://maps.google.com/maps?q=ユーズランド春日部店@35.9885734,139.7898122",
                "lat": 35.9885734,
                "lng": 139.7898122,
                "store_type": null
            },
            {
                "store_name": "アミューズランドモナコ川越店",
                "store_address": "埼玉県川越市新富町2-4-1",
                "store_map_url": "https://maps.google.com/maps?q=アミューズランドモナコ川越店@35.913294,139.4831383",
                "lat": 35.913294,
                "lng": 139.4831383,
                "store_type": null
            },
            {
                "store_name": "テクモピア川越店",
                "store_address": "埼玉県川越市脇田町４ー２ドンキホーテ川越東口店３Ｆ",
                "store_map_url": "https://maps.google.com/maps?q=テクモピア川越店@35.9090606,139.4829145",
                "lat": 35.9090606,
                "lng": 139.4829145,
                "store_type": null
            },
            {
                "store_name": "アピナ川越店",
                "store_address": "埼玉県川越市泉町１−１　ウニクス南古谷シネマ棟１Ｆ",
                "store_map_url": "https://maps.google.com/maps?q=アピナ川越店@35.90382041470568,139.51533459391783",
                "lat": 35.90382041470568,
                "lng": 139.51533459391783,
                "store_type": null
            },
            {
                "store_name": "タイトーステーション 大宮店",
                "store_address": "埼玉県さいたま市大宮区大門町１−１",
                "store_map_url": "https://maps.google.com/maps?q=タイトーステーション 大宮店@35.90744667623512,139.6255973944775",
                "lat": 35.90744667623512,
                "lng": 139.6255973944775,
                "store_type": null
            },
            {
                "store_name": "埼玉レジャーランド大宮駅東口店",
                "store_address": "埼玉県さいたま市大宮区宮町1-8大宮セントラルビルB1F-2F",
                "store_map_url": "https://maps.google.com/maps?q=埼玉レジャーランド大宮駅東口店@35.9079906,139.6245492",
                "lat": 35.9079906,
                "lng": 139.6245492,
                "store_type": null
            },
            {
                "store_name": "埼玉レジャーランド大宮ラクーン店",
                "store_address": "埼玉県さいたま市大宮区宮町1-60 RAKUUN５階",
                "store_map_url": "https://maps.google.com/maps?q=埼玉レジャーランド大宮ラクーン店@35.907751,139.6256804",
                "lat": 35.907751,
                "lng": 139.6256804,
                "store_type": null
            },
            {
                "store_name": "ラウンドワン大宮店",
                "store_address": "埼玉県さいたま市大宮区宮町４−９０−７",
                "store_map_url": "https://maps.google.com/maps?q=ラウンドワン大宮店@35.9108281,139.6254402",
                "lat": 35.9108281,
                "lng": 139.6254402,
                "store_type": null
            },
            {
                "store_name": "ＧｉＧＯ大宮西口",
                "store_address": "埼玉県さいたま市大宮区桜木町二丁目３番地２",
                "store_map_url": "https://maps.google.com/maps?q=ＧｉＧＯ大宮西口@35.9069124,139.6221862",
                "lat": 35.9069124,
                "lng": 139.6221862,
                "store_type": null
            },
            {
                "store_name": "タイトーＦステーションダイエー大宮店",
                "store_address": "埼玉県さいたま市大宮区桜木町２‐３　ダイエー店内７Ｆ",
                "store_map_url": "https://maps.google.com/maps?q=タイトーＦステーションダイエー大宮店@35.9068898,139.6217932",
                "lat": 35.9068898,
                "lng": 139.6217932,
                "store_type": null
            },
            {
                "store_name": "ＧｉＧＯイオンモール与野",
                "store_address": "埼玉県さいたま市中央区本町西５ー２−９イオンモール与野３Ｆ",
                "store_map_url": "https://maps.google.com/maps?q=ＧｉＧＯイオンモール与野@35.89063329770034,139.61510160898433",
                "lat": 35.89063329770034,
                "lng": 139.61510160898433,
                "store_type": null
            },
            {
                "store_name": "ウェアハウス三橋店",
                "store_address": "埼玉県さいたま市西区三橋６−９５５−１",
                "store_map_url": "https://maps.google.com/maps?q=ウェアハウス三橋店@35.91579143123197,139.59584728836057",
                "lat": 35.91579143123197,
                "lng": 139.59584728836057,
                "store_type": null
            },
            {
                "store_name": "ウェアハウス岩槻店",
                "store_address": "埼玉県さいたま市岩槻区加倉３−３−６３",
                "store_map_url": "https://maps.google.com/maps?q=ウェアハウス岩槻店@35.941179,139.6861123",
                "lat": 35.941179,
                "lng": 139.6861123,
                "store_type": null
            },
            {
                "store_name": "アミューズメントクラブ浦和",
                "store_address": "埼玉県さいたま市浦和区仲町1-10-7",
                "store_map_url": "https://maps.google.com/maps?q=アミューズメントクラブ浦和@35.86026,139.6535399",
                "lat": 35.86026,
                "lng": 139.6535399,
                "store_type": null
            },
            {
                "store_name": "ＧｉＧＯイオンモール浦和美園",
                "store_address": "埼玉県さいたま市緑区美園５−５０−１イオンモール浦和美園２Ｆ",
                "store_map_url": "https://maps.google.com/maps?q=ＧｉＧＯイオンモール浦和美園@35.8912268,139.731012",
                "lat": 35.8912268,
                "lng": 139.731012,
                "store_type": null
            },
            {
                "store_name": "ＧｉＧＯ入間",
                "store_address": "埼玉県入間市東藤沢２−１８",
                "store_map_url": "https://maps.google.com/maps?q=ＧｉＧＯ入間@35.819205367671685,139.41811786627045",
                "lat": 35.819205367671685,
                "lng": 139.41811786627045,
                "store_type": null
            },
            {
                "store_name": "ラウンドワン入間店",
                "store_address": "埼玉県入間市小谷田３−７−２５",
                "store_map_url": "https://maps.google.com/maps?q=ラウンドワン入間店@35.8279801,139.3760089",
                "lat": 35.8279801,
                "lng": 139.3760089,
                "store_type": null
            },
            {
                "store_name": "アピナ上尾店",
                "store_address": "埼玉県上尾市緑丘３−３−１１−２　Ｐ・Ａ・Ｐ・Ａ上尾ＳＣ別棟",
                "store_map_url": "https://maps.google.com/maps?q=アピナ上尾店@35.98824657086851,139.58082229811703",
                "lat": 35.98824657086851,
                "lng": 139.58082229811703,
                "store_type": null
            },
            {
                "store_name": "ラウンドワン上尾店",
                "store_address": "埼玉県上尾市大字平塚９１７−１",
                "store_map_url": "https://maps.google.com/maps?q=ラウンドワン上尾店@35.98573208623946,139.60784023306576",
                "lat": 35.98573208623946,
                "lng": 139.60784023306576,
                "store_type": null
            },
            {
                "store_name": "ウェアハウス上尾店",
                "store_address": "埼玉県上尾市二ツ宮１０４４",
                "store_map_url": "https://maps.google.com/maps?q=ウェアハウス上尾店@35.9812984,139.5998607",
                "lat": 35.9812984,
                "lng": 139.5998607,
                "store_type": null
            },
            {
                "store_name": "ＦＥＳＴＡ上尾店",
                "store_address": "埼玉県上尾市愛宕３−１−４０バリュープラザ上尾愛宕店２Ｆ",
                "store_map_url": "https://maps.google.com/maps?q=ＦＥＳＴＡ上尾店@35.9646627,139.5967779",
                "lat": 35.9646627,
                "lng": 139.5967779,
                "store_type": null
            },
            {
                "store_name": "モーリーファンタジー上尾店",
                "store_address": "埼玉県上尾市愛宕3-8-1",
                "store_map_url": "https://maps.google.com/maps?q=モーリーファンタジー上尾店@35.9647283,139.6002725",
                "lat": 35.9647283,
                "lng": 139.6002725,
                "store_type": null
            },
            {
                "store_name": "パラボランド上尾ショーサンプラザ店",
                "store_address": "埼玉県上尾市谷津２−１−１ショーサンプラザ５階",
                "store_map_url": "https://maps.google.com/maps?q=パラボランド上尾ショーサンプラザ店@35.9719968,139.58857",
                "lat": 35.9719968,
                "lng": 139.58857,
                "store_type": null
            },
            {
                "store_name": "ゲームファクトリーマグマ草加店",
                "store_address": "埼玉県草加市氷川町2125-1",
                "store_map_url": "https://maps.google.com/maps?q=ゲームファクトリーマグマ草加店@35.8282375,139.8025135",
                "lat": 35.8282375,
                "lng": 139.8025135,
                "store_type": null
            },
            {
                "store_name": "ウェアハウス草加店別館",
                "store_address": "埼玉県草加市稲荷２−３６−３３",
                "store_map_url": "https://maps.google.com/maps?q=ウェアハウス草加店別館@35.82988312095263,139.82058531282803",
                "lat": 35.82988312095263,
                "lng": 139.82058531282803,
                "store_type": null
            },
            {
                "store_name": "ラウンドワン草加店",
                "store_address": "埼玉県草加市谷塚上町２０４番１",
                "store_map_url": "https://maps.google.com/maps?q=ラウンドワン草加店@35.8124210975572,139.78790271534422",
                "lat": 35.8124210975572,
                "lng": 139.78790271534422,
                "store_type": null
            },
            {
                "store_name": "ＧｉＧＯ南越谷ラクーン",
                "store_address": "埼玉県越谷市南越谷１丁目１５番１号南越谷ラクーン２Ｆ",
                "store_map_url": "https://maps.google.com/maps?q=ＧｉＧＯ南越谷ラクーン@35.8750206,139.7931848",
                "lat": 35.8750206,
                "lng": 139.7931848,
                "store_type": null
            },
            {
                "store_name": "ウェアハウス越谷店",
                "store_address": "埼玉県越谷市南荻島８４１−１",
                "store_map_url": "https://maps.google.com/maps?q=ウェアハウス越谷店@35.9119605,139.7637724",
                "lat": 35.9119605,
                "lng": 139.7637724,
                "store_type": null
            },
            {
                "store_name": "ユーズランド越谷店",
                "store_address": "埼玉県越谷市レイクタウン4-2-2イオンレイクタウンKAZE3F",
                "store_map_url": "https://maps.google.com/maps?q=ユーズランド越谷店@35.8778002,139.8245962",
                "lat": 35.8778002,
                "lng": 139.8245962,
                "store_type": null
            },
            {
                "store_name": "ＧｉＧＯ籠原",
                "store_address": "埼玉県熊谷市美土里町１−１−１６９",
                "store_map_url": "https://maps.google.com/maps?q=ＧｉＧＯ籠原@36.17095044617331,139.31825630304104",
                "lat": 36.17095044617331,
                "lng": 139.31825630304104,
                "store_type": null
            },
            {
                "store_name": "ＳＯＹＵＧａｍｅＦｅｉｌｄ熊谷",
                "store_address": "埼玉県熊谷市銀座2-245ﾆｯﾄﾓｰﾙ4F",
                "store_map_url": "https://maps.google.com/maps?q=ＳＯＹＵＧａｍｅＦｅｉｌｄ熊谷@36.1387884,139.3937695",
                "lat": 36.1387884,
                "lng": 139.3937695,
                "store_type": null
            },
            {
                "store_name": "ｎａｍｃｏ熊谷店",
                "store_address": "埼玉県熊谷市銀座2-97CARPA1階",
                "store_map_url": "https://maps.google.com/maps?q=ｎａｍｃｏ熊谷店@36.1391162,139.3949055",
                "lat": 36.1391162,
                "lng": 139.3949055,
                "store_type": null
            },
            {
                "store_name": "ＰＡＬＯ熊谷",
                "store_address": "埼玉県熊谷市本石２−１３５",
                "store_map_url": "https://maps.google.com/maps?q=ＰＡＬＯ熊谷@36.14537110766438,139.37882910740973",
                "lat": 36.14537110766438,
                "lng": 139.37882910740973,
                "store_type": null
            },
            {
                "store_name": "タイトーステーション 和光店",
                "store_address": "埼玉県和光市丸山台１−４−５",
                "store_map_url": "https://maps.google.com/maps?q=タイトーステーション 和光店@35.7866435,139.6138036",
                "lat": 35.7866435,
                "lng": 139.6138036,
                "store_type": null
            },
            {
                "store_name": "アドアーズ和光",
                "store_address": "埼玉県和光市本町３−５ワコーステーション３　１−３Ｆ",
                "store_map_url": "https://maps.google.com/maps?q=アドアーズ和光@35.7883181,139.6115733",
                "lat": 35.7883181,
                "lng": 139.6115733,
                "store_type": null
            },
            {
                "store_name": "サープラ八潮あそびタウン",
                "store_address": "埼玉県八潮市大瀬１−１−３フレスポ八潮３Ｆ",
                "store_map_url": "https://maps.google.com/maps?q=サープラ八潮あそびタウン@35.80854559380593,139.84387915092623",
                "lat": 35.80854559380593,
                "lng": 139.84387915092623,
                "store_type": null
            },
            {
                "store_name": "ビッグボウル杉戸",
                "store_address": "埼玉県北葛飾郡杉戸町大字杉戸２３３８",
                "store_map_url": "https://maps.google.com/maps?q=ビッグボウル杉戸@36.040185,139.7208181",
                "lat": 36.040185,
                "lng": 139.7208181,
                "store_type": null
            },
            {
                "store_name": "ＧｉＧＯ花園",
                "store_address": "埼玉県深谷市荒川３５９",
                "store_map_url": "https://maps.google.com/maps?q=ＧｉＧＯ花園@36.1204271,139.2330687",
                "lat": 36.1204271,
                "lng": 139.2330687,
                "store_type": null
            },
            {
                "store_name": "ｎａｍｃｏイオンモール北戸田店",
                "store_address": "埼玉県戸田市美女木東１−３−１ｲｵﾝﾓｰﾙ北戸田ｼｮｯﾋﾟﾝｸﾞｾﾝﾀｰ内3F",
                "store_map_url": "https://maps.google.com/maps?q=ｎａｍｃｏイオンモール北戸田店@35.8266137,139.6526187",
                "lat": 35.8266137,
                "lng": 139.6526187,
                "store_type": null
            },
            {
                "store_name": "ギガステーション戸田店",
                "store_address": "埼玉県戸田市大字美女木943-7",
                "store_map_url": "https://maps.google.com/maps?q=ギガステーション戸田店@35.834151131666935,139.65337923068842",
                "lat": 35.834151131666935,
                "lng": 139.65337923068842,
                "store_type": null
            },
            {
                "store_name": "ラウンドワン朝霞店",
                "store_address": "埼玉県朝霞市膝折町２−１６−１０",
                "store_map_url": "https://maps.google.com/maps?q=ラウンドワン朝霞店@35.7902754,139.5796457",
                "lat": 35.7902754,
                "lng": 139.5796457,
                "store_type": null
            },